OBJECTID,Join_Count,TARGET_FID,Join_Count_1,TARGET_FID_1,id,city,company,name,type,prod,type_ru,lat,long,out,name_en,AREA,PERIMETER,CODE,NAME_1,TYPE_1,REG,AREA_1,PERIMETER_1,GLG
1,1,1,1,1,1,Èãàðêà,ÀÎ ""Âàíêîðíåôòü"",Âàíêîðñêîå ìåñòîðîæäåíèå,oil-gas,479.100000000000023,íåôòåãàçîâîå,67.757839000000004,83.553771999999995,/oil-gas-field/vankorskoe,Vankorskoe,2285549626238.638183593750000,7942933.641999999992549,1174,West Siberian Basin,p,1,1991093993625.498046875000000,45775025.710000000894070,Pg
2,1,2,1,2,2,Òàçîâñêèé,ÏÀÎ ""ÍÊ ""ÐÎÑÍÅÔÒÜ"",Ðóññêîå ìåñòîðîæäåíèå,gas-oil,422.000000000000000,ãàçîíåôòÿíîå,66.673513999999997,80.539055000000005,/oil-gas-field/russkoe,Russkoe,2285549626238.638183593750000,7942933.641999999992549,1174,West Siberian Basin,p,1,1991093993625.498046875000000,45775025.710000000894070,Pg
3,1,3,1,3,3,Ëÿíòîð,ÎÀÎ ""Ñóðãóòíåôòåãàç"",Ëÿíòîðñêîå ìåñòîðîæäåíèå,oil-gas-condensate,380.000000000000000,íåôòåãàçîêîíäåíñàòíîå,61.701388999999999,72.084166999999994,/oil-gas-field/lyantorskoe,Lyantorskoe,2285549626238.638183593750000,7942933.641999999992549,1174,West Siberian Basin,p,1,1991093993625.498046875000000,45775025.710000000894070,Pg
4,1,4,1,4,4,Òîáîëüñê,ÎÎÎ «ÐÍ «Óâàòíåôòåãàç»,Óðíåíñêîå ìåñòîðîæäåíèå,oil,360.000000000000000,íåôòÿíîå,58.247954000000000,73.553510000000003,/oil-gas-field/urnenskoye,Urnenskoye,2285549626238.638183593750000,7942933.641999999992549,1174,West Siberian Basin,p,1,274348615164.579986572265625,7957469.074000000022352,QT
5,1,5,1,5,5,Óñèíñê,ÎÎÎ «ËÓÊÎÉË-Êîìè»,Óñèíñêîå ìåñòîðîæäåíèå,oil,350.000000000000000,íåôòÿíîå,66.169390000000007,57.360992000000003,/oil-gas-field/usinskoe,Usinskoe,450939701379.052001953125000,3262746.402999999932945,1008,Timan-Pechora Basin,p,1,34088606601.536998748779297,2475141.949000000022352,J
6,1,6,1,6,6,Õàíòû-Ìàíñèéñê,ÀÎ «ÐÍ-Íÿãàíüíåôòåãàç»,Êàìåííîå ìåñòîðîæäåíèå (çàïàäíàÿ ÷àñòü),oil-gas,300.000000000000000,íåôòåãàçîâîå,61.386856000000002,67.185516000000007,/oil-gas-field/kamennoe-west,Kamennoe West,2285549626238.638183593750000,7942933.641999999992549,1174,West Siberian Basin,p,1,1991093993625.498046875000000,45775025.710000000894070,Pg
7,1,7,1,7,7,Êèðåíñê,ÏÀÎ ""ÍÊ ""ÐÎÑÍÅÔÒÜ"",Âåðõíå÷îíñêîå ìåñòîðîæäåíèå,oil-gas-condensate,276.000000000000000,íåôòåãàçîêîíäåíñàòíîå,60.166666999999997,109.333332999999996,/oil-gas-field/verkhnechonskoye,Verkhnechonskoye,360115965584.392028808593750,3295676.089999999850988,1210,Nepa-Botuoba Arch,p,1,173720350176.319000244140625,12617611.766000000759959,Cm
8,1,8,1,8,8,Íèæíåâàðòîâñê,ÀÎ «Òîìñêíåôòü» ÂÍÊ,Ñîâåòñêîå ìåñòîðîæäåíèå,oil,232.800000000000011,íåôòÿíîå,60.743558999999998,77.238006999999996,/oil-gas-field/sovetskoe,Sovetskoe,2285549626238.638183593750000,7942933.641999999992549,1174,West Siberian Basin,p,1,1991093993625.498046875000000,45775025.710000000894070,Pg
9,1,9,1,9,9,Õàíòû-Ìàíñèéñê,ÎÎÎ «Ãàçïðîìíåôòü-Õàíòîñ»,Ïðèîáñêîå ìåñòîðîæäåíèå (þæíàÿ ëèöåíçèîííàÿ òåððèòîðèÿ (ÞËÒ)),oil,220.000000000000000,íåôòÿíîå,60.764525999999996,69.890900000000002,/oil-gas-field/priobskoe-south,Priobskoe South,2285549626238.638183593750000,7942933.641999999992549,1174,West Siberian Basin,p,1,1991093993625.498046875000000,45775025.710000000894070,Pg
10,1,10,1,10,10,Ñóðãóò,ÎÀÎ ""Ñóðãóòíåôòåãàç"",Çàïàäíî-Ñóðãóòñêîå ìåñòîðîæäåíèå,oil,215.000000000000000,íåôòÿíîå,61.333210000000001,73.153153000000003,/oil-gas-field/zapadno-surgutskoe,Zapadno Surgutskoe,2285549626238.638183593750000,7942933.641999999992549,1174,West Siberian Basin,p,1,1991093993625.498046875000000,45775025.710000000894070,Pg
11,1,11,1,11,11,Ãóáêèíñêèé,ÏÀÎ ""ÍÊ ""ÐÎÑÍÅÔÒÜ"",Ñåâåðî-Êîìñîìîëüñêîå ìåñòîðîæäåíèå,oil-gas-condensate,205.000000000000000,íåôòåãàçîêîíäåíñàòíîå,64.704386999999997,75.410843000000000,/oil-gas-field/north-komsomolskoe,North Komsomolskoe,2285549626238.638183593750000,7942933.641999999992549,1174,West Siberian Basin,p,1,1991093993625.498046875000000,45775025.710000000894070,Pg
12,1,12,1,12,12,Õàíòû-Ìàíñèéñê,ÎÎÎ «ÐÍ-Þãàíñêíåôòåãàç»,Ïðèðàçëîìíîå ìåñòîðîæäåíèå (Ðîñíåôòü),oil,200.000000000000000,íåôòÿíîå,60.907738000000002,70.791779000000005,/oil-gas-field/prirazlomnoye-rosneft,Prirazlomnoye Rosneft,2285549626238.638183593750000,7942933.641999999992549,1174,West Siberian Basin,p,1,1991093993625.498046875000000,45775025.710000000894070,Pg
13,1,13,1,13,13,Ñóðãóò,ÎÀÎ ""Ñóðãóòíåôòåãàç"",Ô¸äîðîâñêîå ìåñòîðîæäåíèå,oil-gas-condensate,189.900000000000006,íåôòåãàçîêîíäåíñàòíîå,61.702894999999998,73.869324000000006,/oil-gas-field/fyodorovskoe,Fyodorovskoe,2285549626238.638183593750000,7942933.641999999992549,1174,West Siberian Basin,p,1,1991093993625.498046875000000,45775025.710000000894070,Pg
14,1,14,1,14,14,Ìèðíûé (Ðåñïóáëèêà Ñàõà (ßêóòèÿ)),ÏÀÎ ""ÍÊ ""ÐÎÑÍÅÔÒÜ"",Ñðåäíåáîòóîáèíñêîå ìåñòîðîæäåíèå,oil-gas-condensate,166.000000000000000,íåôòåãàçîêîíäåíñàòíîå,61.783351000000003,113.144760000000005,/oil-gas-field/srednebotuobinskoe,Srednebotuobinskoe,360115965584.392028808593750,3295676.089999999850988,1210,Nepa-Botuoba Arch,p,1,409032956975.697998046875000,18614348.852000001817942,J
15,1,15,1,15,15,Òþìåíü,ÎÀÎ ""Ñóðãóòíåôòåãàç"",Ðîãîæíèêîâñêîå ìåñòîðîæäåíèå,oil,150.000000000000000,íåôòÿíîå,62.385587999999998,67.441292000000004,/oil-gas-field/rogozhnikovskoe,Rogozhnikovskoe,2285549626238.638183593750000,7942933.641999999992549,1174,West Siberian Basin,p,1,1991093993625.498046875000000,45775025.710000000894070,Pg
16,1,16,1,16,16,ßðåãà,ÎÎÎ «ËÓÊÎÉË-Êîìè»,ßðåãñêîå ìåñòîðîæäåíèå,oil,131.800000000000011,íåôòÿíîå,63.347278000000003,53.605471000000001,/oil-gas-field/yaregskoye,Yaregskoye,450939701379.052001953125000,3262746.402999999932945,1008,Timan-Pechora Basin,p,1,30080133442.194999694824219,2594278.833999999798834,D
17,1,17,1,17,17,NA,Ñîáñòâåííèê/Èíâåñòîð,Êóìêîëüñêîå ìåñòîðîæäåíèå,gas-oil,130.000000000000000,ãàçîíåôòÿíîå,46.489727000000002,65.601619999999997,/oil-gas-field/kumkolskoe,Kumkolskoe,90695527890.817001342773438,1526796.527999999932945,1167,South Turgay Basin, ,0,1991093993625.498046875000000,45775025.710000000894070,Pg
18,1,18,1,18,18,Àñòðàõàíü,ÏÀÎ ""ËÓÊÎÉË"",Ìåñòîðîæäåíèå èì. Â. Ôèëàíîâñêîãî,oil-gas-condensate,129.000000000000000,íåôòåãàçîêîíäåíñàòíîå,45.000278000000002,48.561943999999997,/oil-gas-field/filanovskogo,Filanovskogo,424289671751.504028320312500,4260165.265999999828637,1109,Middle Caspian Basin,p,1,409082547603.734008789062500,6944516.891999999992549,SEA
19,1,19,1,19,19,Ìóðàâëåíêî,ÀÎ «Ãàçïðîìíåôòü-Íîÿáðüñêíåôòåãàç»,Ñóãìóòñêîå ìåñòîðîæäåíèå,oil,123.769999999999996,íåôòÿíîå,63.813409999999998,73.578180000000003,/oil-gas-field/sugmutskoe,Sugmutskoe,2285549626238.638183593750000,7942933.641999999992549,1174,West Siberian Basin,p,1,1991093993625.498046875000000,45775025.710000000894070,Pg
20,1,20,1,20,20,Ãóáêèíñêèé,ÀÎ «Ãàçïðîìíåôòü-Íîÿáðüñêíåôòåãàç»,Ìåðåòîÿõèíñêîå ìåñòîðîæäåíèå,oil-gas,120.000000000000000,íåôòåãàçîâîå,64.590299999999999,74.665830000000000,/oil-gas-field/meretoyahinskoe,Meretoyahinskoe,2285549626238.638183593750000,7942933.641999999992549,1174,West Siberian Basin,p,1,1991093993625.498046875000000,45775025.710000000894070,Pg
21,1,21,1,21,21,Íèæíåâàðòîâñê,ÀÎ «Òîìñêíåôòü» ÂÍÊ,Âàõñêîå ìåñòîðîæäåíèå,oil,101.599999999999994,íåôòÿíîå,60.889704000000002,78.987578999999997,/oil-gas-field/vakhskoe,Vakhskoe,2285549626238.638183593750000,7942933.641999999992549,1174,West Siberian Basin,p,1,1991093993625.498046875000000,45775025.710000000894070,Pg
22,1,22,1,22,22,Íàäûì,ÎÎÎ «Ãàçïðîì íåôòü Íîâûé Ïîðò»,Íîâîïîðòîâñêîå ìåñòîðîæäåíèå,oil-gas-condensate,100.000000000000000,íåôòåãàçîêîíäåíñàòíîå,67.781218999999993,72.559203999999994,/oil-gas-field/novoportovoe,Novoportovoe,2285549626238.638183593750000,7942933.641999999992549,1174,West Siberian Basin,p,1,79346903486.179000854492188,2485392.078000000212342,Pg
23,1,23,1,23,23,Íîâûé Óðåíãîé,ÎÎÎ «ÐÍ-Ïóðíåôòåãàç»,Ñåâåðî-Õàðàìïóðñêîå ìåñòîðîæäåíèå,gas-oil,88.000000000000000,ãàçîíåôòÿíîå,64.227005000000005,79.568911000000000,/oil-gas-field/severo-kharampurskoye,Severo Kharampurskoye,2285549626238.638183593750000,7942933.641999999992549,1174,West Siberian Basin,p,1,1991093993625.498046875000000,45775025.710000000894070,Pg
24,1,24,1,24,24,Ãóáêèíñêèé,ÏÀÎ ""ÍÊ ""ÐÎÑÍÅÔÒÜ"",Þæíî-Õàðàìïóðñêîå ìåñòîðîæäåíèå,oil-gas,88.000000000000000,íåôòåãàçîâîå,63.927613000000001,79.647102000000004,/oil-gas-field/south-kharampur,South Kharampur,2285549626238.638183593750000,7942933.641999999992549,1174,West Siberian Basin,p,1,1991093993625.498046875000000,45775025.710000000894070,Pg
25,1,25,1,25,25,Íîâûé Óðåíãîé,ÏÀÎ ""ÍÊ ""ÐÎÑÍÅÔÒÜ"",Õàðàìïóðñêîå ìåñòîðîæäåíèå,oil-gas-condensate,80.000000000000000,íåôòåãàçîêîíäåíñàòíîå,63.904772000000001,79.707183999999998,/oil-gas-field/harampurskoe,Harampurskoe,2285549626238.638183593750000,7942933.641999999992549,1174,West Siberian Basin,p,1,1991093993625.498046875000000,45775025.710000000894070,Pg
26,1,26,1,26,26,ïãò Íîãëèêè,ÎÎÎ «Ãàçïðîìíåôòü-Ñàõàëèí»,Ìåñòîðîæäåíèå Íåïòóí (Àÿøñêèé ó÷àñòîê),oil,80.000000000000000,íåôòÿíîå,52.360833000000000,144.096944000000008,/oil-gas-field/neptun,Neptun,203974244217.566986083984375,3086468.657999999821186,1321,Deryugin Basin, ,0,10059528710210.796875000000000,88017714.201000005006790,SEA
27,1,27,1,27,27,Íîâûé Óðåíãîé,ÎÎÎ «Ãàçïðîìíåôòü-ßìàë»,Ñåâåðî-Ñàìáóðãñêîå ìåñòîðîæäåíèå,oil,80.000000000000000,íåôòÿíîå,67.005278000000004,77.479167000000004,/oil-gas-field/severo-samburgskoe,Severo Samburgskoe,2285549626238.638183593750000,7942933.641999999992549,1174,West Siberian Basin,p,1,1991093993625.498046875000000,45775025.710000000894070,Pg
28,1,28,1,28,28,Âîòêèíñê,ÎÀÎ ""Óäìóðòíåôòü"",Ìèøêèíñêîå ìåñòîðîæäåíèå,oil,79.900000000000006,íåôòÿíîå,57.130184000000000,54.028702000000003,/oil-gas-field/mishkinskoe,Mishkinskoe,726370445706.697998046875000,4972426.422000000253320,1015,Volga-Ural Region,p,1,604011631899.788940429687500,20681400.471999999135733,P
29,1,29,1,29,29,Äóäèíêà,ÀÎ «Ñàìîòëîðíåôòåãàç»,Ëîäî÷íîå ìåñòîðîæäåíèå,oil-gas-condensate,77.000000000000000,íåôòåãàçîêîíäåíñàòíîå,67.540278000000001,83.187500000000000,/oil-gas-field/lodochnoe,Lodochnoe,2285549626238.638183593750000,7942933.641999999992549,1174,West Siberian Basin,p,1,1991093993625.498046875000000,45775025.710000000894070,Pg
30,1,30,1,30,30,ïîñ. Ëûõìà Áåëîÿðñêîãî ð-íà,ÏÀÎ ""ËÓÊÎÉË"",Ìåñòîðîæäåíèå èì. Â.Í. Âèíîãðàäîâà (Áîëüøîå Îëüõîâñêîå íåôòÿíîå ìåñòîðîæäåíèå),oil,75.000000000000000,íåôòÿíîå,62.965212000000001,67.491759999999999,/oil-gas-field/v-n-vinogradova,V N Vinogradova,2285549626238.638183593750000,7942933.641999999992549,1174,West Siberian Basin,p,1,1991093993625.498046875000000,45775025.710000000894070,Pg
31,1,31,1,31,31,Ñàðàïóë,ÎÀÎ ""Óäìóðòíåôòü"",Åëüíèêîâñêîå ìåñòîðîæäåíèå,oil,74.909999999999997,íåôòÿíîå,56.259753000000003,54.060974000000002,/oil-gas-field/elnikovskoe,Elnikovskoe,726370445706.697998046875000,4972426.422000000253320,1015,Volga-Ural Region,p,1,604011631899.788940429687500,20681400.471999999135733,P
32,1,32,1,32,32,Òàçîâñêèé,ÎÎÎ ""Ãàçïðîì äîáû÷à ßìáóðã"",Òàçîâñêîå ìåñòîðîæäåíèå,oil-gas-condensate,72.000000000000000,íåôòåãàçîêîíäåíñàòíîå,67.331943999999993,78.998056000000005,/oil-gas-field/tazovskoe,Tazovskoe,2285549626238.638183593750000,7942933.641999999992549,1174,West Siberian Basin,p,1,1991093993625.498046875000000,45775025.710000000894070,Pg
33,1,33,1,33,33,Íîÿáðüñê,ÀÎ «Ãàçïðîìíåôòü-Íîÿáðüñêíåôòåãàç»,Õîëìîãîðñêîå ìåñòîðîæäåíèå,oil,70.000000000000000,íåôòÿíîå,62.957720000000002,74.355459999999994,/oil-gas-field/kholmogorskoye,Kholmogorskoye,2285549626238.638183593750000,7942933.641999999992549,1174,West Siberian Basin,p,1,1991093993625.498046875000000,45775025.710000000894070,Pg
34,1,34,1,34,34,Íàðüÿí-Ìàð,ÎÎÎ «Ãàçïðîì íåôòü øåëüô»,Ïðèðàçëîìíîå ìåñòîðîæäåíèå,oil,70.000000000000000,íåôòÿíîå,69.251769999999993,57.341760000000001,/oil-gas-field/prirazlomnoe,Prirazlomnoe,450939701379.052001953125000,3262746.402999999932945,1008,Timan-Pechora Basin,p,1,10059528710210.796875000000000,88017714.201000005006790,SEA
35,1,35,1,35,35,Èãàðêà,ÎÎÎ «ËÓÊÎÉË-Çàïàäíàÿ Ñèáèðü»,Ïÿêÿõèíñêîå ìåñòîðîæäåíèå,oil-gas-condensate,69.500000000000000,íåôòåãàçîêîíäåíñàòíîå,67.469397999999998,80.074539000000001,/oil-gas-field/pyakyakhinskoye,Pyakyakhinskoye,2285549626238.638183593750000,7942933.641999999992549,1174,West Siberian Basin,p,1,1991093993625.498046875000000,45775025.710000000894070,Pg
36,1,36,1,36,36,Âîòêèíñê,ÎÀÎ ""Óäìóðòíåôòü"",Ãðåìèõèíñêîå ìåñòîðîæäåíèå,oil,65.439999999999998,íåôòÿíîå,56.845028999999997,53.657913000000001,/oil-gas-field/gremihinskoe,Gremihinskoe,726370445706.697998046875000,4972426.422000000253320,1015,Volga-Ural Region,p,1,604011631899.788940429687500,20681400.471999999135733,P
37,1,37,1,37,37,Ãóáêèíñêèé,ÀÎ «Ãàçïðîìíåôòü-Íîÿáðüñêíåôòåãàç»,Âûíãàÿõèíñêîå ìåñòîðîæäåíèå,oil-gas,62.000000000000000,íåôòåãàçîâîå,63.756990000000002,76.804040000000001,/oil-gas-field/vyngayakhinskoye,Vyngayakhinskoye,2285549626238.638183593750000,7942933.641999999992549,1174,West Siberian Basin,p,1,1991093993625.498046875000000,45775025.710000000894070,Pg
38,1,38,1,38,38,Íèæíåâàðòîâñê,ÏÀÎ ""ÍÊ ""ÐÎÑÍÅÔÒÜ"",Âàí-Åãàíñêîå ìåñòîðîæäåíèå,oil-gas-condensate,62.000000000000000,íåôòåãàçîêîíäåíñàòíîå,61.873956999999997,77.246932999999999,/oil-gas-field/van-eganskoe,Van Eganskoe,2285549626238.638183593750000,7942933.641999999992549,1174,West Siberian Basin,p,1,1991093993625.498046875000000,45775025.710000000894070,Pg
39,1,39,1,39,39,Íîÿáðüñê,ÀÎ «Ãàçïðîìíåôòü-Íîÿáðüñêíåôòåãàç»,Ñïîðûøåâñêîå ìåñòîðîæäåíèå,oil,54.600000000000001,íåôòÿíîå,63.306510000000003,75.517269999999996,/oil-gas-field/sporyshevskoye,Sporyshevskoye,2285549626238.638183593750000,7942933.641999999992549,1174,West Siberian Basin,p,1,1991093993625.498046875000000,45775025.710000000894070,Pg
40,1,40,1,40,40,Ìóðàâëåíêî,ÀÎ «Ãàçïðîìíåôòü-Íîÿáðüñêíåôòåãàç»,Êðàéíåå ìåñòîðîæäåíèå,oil,52.000000000000000,íåôòÿíîå,63.674280000000003,74.312889999999996,/oil-gas-field/krainee,Krainee,2285549626238.638183593750000,7942933.641999999992549,1174,West Siberian Basin,p,1,1991093993625.498046875000000,45775025.710000000894070,Pg
41,1,41,1,41,41,Íÿãàíü,ÀÎ «ÐÍ-Íÿãàíüíåôòåãàç»,Åì-¨ãîâñêîå ìåñòîðîæäåíèå,oil,51.000000000000000,íåôòÿíîå,61.806879000000002,66.479645000000005,/oil-gas-field/yem-yogovskoye,Yem Yogovskoye,2285549626238.638183593750000,7942933.641999999992549,1174,West Siberian Basin,p,1,1991093993625.498046875000000,45775025.710000000894070,Pg
42,1,42,1,42,42,Íàðüÿí-Ìàð,ÎÎÎ ""Áàøíåôòü-Ïîëþñ"",Ìåñòîðîæäåíèå èì. Ð. Òðåáñà (Âàðêíàâòñêîå ìåñòîðîæäåíèå),oil,51.000000000000000,íåôòÿíîå,68.653555999999995,57.900696000000003,/oil-gas-field/r-trebs-varknavt,R Trebs Varknavt,450939701379.052001953125000,3262746.402999999932945,1008,Timan-Pechora Basin,p,1,109204210740.423004150390625,3242898.160000000149012,K
43,1,43,1,43,43,Õàíòû-Ìàíñèéñê,ÏÀÎ ""ÍÊ ""ÐÎÑÍÅÔÒÜ"",Íàçûìñêîå ìåñòîðîæäåíèå,oil,43.000000000000000,íåôòÿíîå,62.450277999999997,68.007499999999993,/oil-gas-field/nazymskoe,Nazymskoe,2285549626238.638183593750000,7942933.641999999992549,1174,West Siberian Basin,p,1,1991093993625.498046875000000,45775025.710000000894070,Pg
44,1,44,1,44,44,Àñòðàõàíü,ÇÀÎ ""Íåôòåãàçîâàÿ êîìïàíèÿ ""ÀÔÁ"" (""ÍÃÊ ""ÀÔÁ""),Ìåñòîðîæäåíèå Âåëèêîå,oil-gas,42.299999999999997,íåôòåãàçîâîå,47.186083000000004,47.510258999999998,/oil-gas-field/velikoe,Velikoe,546688741566.757995605468750,2862387.569999999832362,1016,North Caspian Basin,p,1,626721419021.604980468750000,19300571.103999998420477,N
45,1,45,1,45,45,Õàíòû-Ìàíñèéñê,Ñîáñòâåííèê/Èíâåñòîð,Ãàâðèêîâñêîå ìåñòîðîæäåíèå,oil,40.000000000000000,íåôòÿíîå,58.947778000000000,74.265556000000004,/oil-gas-field/gavrikovskoe,Gavrikovskoe,2285549626238.638183593750000,7942933.641999999992549,1174,West Siberian Basin,p,1,1991093993625.498046875000000,45775025.710000000894070,Pg
46,1,46,1,46,46,Íîâûé Óðåíãîé,ÎÎÎ «ÍÎÂÀÒÝÊ-ÒÀÐÊÎÑÀËÅÍÅÔÒÅÃÀÇ»,Õàðáåéñêîå ìåñòîðîæäåíèå,oil-gas-condensate,40.000000000000000,íåôòåãàçîêîíäåíñàòíîå,67.014443999999997,80.895832999999996,/oil-gas-field/kharbeiskoe,Kharbeiskoe,2285549626238.638183593750000,7942933.641999999992549,1174,West Siberian Basin,p,1,1991093993625.498046875000000,45775025.710000000894070,Pg
47,1,47,1,47,47,Íàðüÿí-Ìàð,ÎÎÎ ""Áàøíåôòü-Ïîëþñ"",Ìåñòîðîæäåíèå èì. À. Òèòîâà,oil,38.000000000000000,íåôòÿíîå,68.303427999999997,58.371048000000002,/oil-gas-field/a-titova,A Titova,450939701379.052001953125000,3262746.402999999932945,1008,Timan-Pechora Basin,p,1,109204210740.423004150390625,3242898.160000000149012,K
48,1,48,1,48,48,Àñòðàõàíü,ÏÀÎ ""ËÓÊÎÉË"",Ìåñòîðîæäåíèå èì. Â.È. Ãðàéôåðà (Ðàêóøå÷íîå ìåñòîðîæäåíèå),gas-condensate,38.000000000000000,ãàçîêîíäåíñàòíîå,45.062778000000002,48.610833000000000,/oil-gas-field/rakushechnoe,Rakushechnoe,424289671751.504028320312500,4260165.265999999828637,1109,Middle Caspian Basin,p,1,409082547603.734008789062500,6944516.891999999992549,SEA
49,1,49,1,49,49,Êóþìáà,ÏÀÎ «Ãàçïðîì íåôòü»,Îìîðèíñêîå ìåñòîðîæäåíèå,oil-gas,36.000000000000000,íåôòåãàçîâîå,60.166668999999999,95.414478000000003,/oil-gas-field/omorinskoye,Omorinskoye,202839517987.707000732421875,2408122.007999999914318,1207,Baykit Arch,b,1,8383974792.894000053405762,1287634.546000000089407,O
50,1,50,1,50,50,Êèðåíñê,ÎÎÎ «ÈÍÊ» (Èðêóòñêàÿ íåôòÿíàÿ êîìïàíèÿ),Çàïàäíî-Àÿíñêîå ìåñòîðîæäåíèå,oil-gas-condensate,33.579999999999998,íåôòåãàçîêîíäåíñàòíîå,57.705615000000002,107.432556000000005,/oil-gas-field/west-ayanskoe,West Ayanskoe,360115965584.392028808593750,3295676.089999999850988,1210,Nepa-Botuoba Arch,p,1,130081261281.199005126953125,6486465.122999999672174,O
51,1,51,1,51,51,Õàíòû-Ìàíñèéñê,ÎÀÎ ""Ñóðãóòíåôòåãàç"",Ñåâåðî-Ðîãîæíèêîâñêîå (èìåíè Â. È. Øïèëüìàíà) ìåñòîðîæäåíèå,oil,32.950000000000003,íåôòÿíîå,62.423445999999998,66.906738000000004,/oil-gas-field/severo-rogozhnikovskoe-shpilmana,Severo Rogozhnikovskoe Shpilmana,2285549626238.638183593750000,7942933.641999999992549,1174,West Siberian Basin,p,1,1991093993625.498046875000000,45775025.710000000894070,Pg
52,1,52,1,52,52,Ñåâåðñê,ÀÎ ""Íîâîñèáèðñêíåôòåãàç"",Âåðõ-Òàðñêîå ìåñòîðîæäåíèå,oil,32.000000000000000,íåôòÿíîå,56.803697999999997,78.718586000000002,/oil-gas-field/verkh-tarskoe,Verkh Tarskoe,2285549626238.638183593750000,7942933.641999999992549,1174,West Siberian Basin,p,1,274348615164.579986572265625,7957469.074000000022352,QT
53,1,53,1,53,53,Õàíòû-Ìàíñèéñê,ÎÎÎ ""Áàøíåôòü-Ïîëþñ"",Òîðòàñèíñêîå ìåñòîðîæäåíèå,oil,29.000000000000000,íåôòÿíîå,62.211388999999997,69.501110999999995,/oil-gas-field/tortasinskoe,Tortasinskoe,2285549626238.638183593750000,7942933.641999999992549,1174,West Siberian Basin,p,1,1991093993625.498046875000000,45775025.710000000894070,Pg
54,1,54,1,54,54,Àñòðàõàíü,ÏÀÎ ""ËÓÊÎÉË"",Ìåñòîðîæäåíèå èì. Þ. Êîð÷àãèíà,oil-gas-condensate,28.800000000000001,íåôòåãàçîêîíäåíñàòíîå,44.924722000000003,48.985556000000003,/oil-gas-field/korchagina,Korchagina,424289671751.504028320312500,4260165.265999999828637,1109,Middle Caspian Basin,p,1,409082547603.734008789062500,6944516.891999999992549,SEA
55,1,55,1,55,55,Íîÿáðüñê,ÀÎ «Ãàçïðîìíåôòü-Íîÿáðüñêíåôòåãàç»,Ðàâíèííîå ìåñòîðîæäåíèå,oil,28.000000000000000,íåôòÿíîå,63.328090000000003,79.523160000000004,/oil-gas-field/ravninnoye,Ravninnoye,2285549626238.638183593750000,7942933.641999999992549,1174,West Siberian Basin,p,1,1991093993625.498046875000000,45775025.710000000894070,Pg
56,1,56,1,56,56,Íîÿáðüñê,ÀÎ «Ãàçïðîìíåôòü-Íîÿáðüñêíåôòåãàç»,Âûíãàïóðîâñêîå ìåñòîðîæäåíèå,oil-gas,26.000000000000000,íåôòåãàçîâîå,63.052470000000000,76.912530000000004,/oil-gas-field/vyngapurovskoye,Vyngapurovskoye,2285549626238.638183593750000,7942933.641999999992549,1174,West Siberian Basin,p,1,1991093993625.498046875000000,45775025.710000000894070,Pg
57,1,57,1,57,57,Îðåíáóðã,Ñîáñòâåííèê/Èíâåñòîð,Ñëàäêîâñêî-çàðå÷íîå ìåñòîðîæäåíèå,oil,26.000000000000000,íåôòÿíîå,51.666389000000002,52.828055999999997,/oil-gas-field/sladovsko-zarechnoe,Sladovsko Zarechnoe,726370445706.697998046875000,4972426.422000000253320,1015,Volga-Ural Region,p,1,8449014828.029999732971191,1941975.810999999986961,Tr
58,1,58,1,58,58,Êåäðîâûé,ÎÎÎ «Ãàçïðîìíåôòü-Âîñòîê»,Óðìàíñêîå ìåñòîðîæäåíèå,oil,25.250000000000000,íåôòÿíîå,57.606059999999999,78.411479999999997,/oil-gas-field/urmanskoye,Urmanskoye,2285549626238.638183593750000,7942933.641999999992549,1174,West Siberian Basin,p,1,1991093993625.498046875000000,45775025.710000000894070,Pg
59,1,59,1,59,59,Îðåíáóðã,ÎÎÎ «Ãàçïðîìíåôòü-Îðåíáóðã»,Öàðè÷àíñêîå ìåñòîðîæäåíèå,oil-gas-condensate,25.000000000000000,íåôòåãàçîêîíäåíñàòíîå,52.222749999999998,54.213400000000000,/oil-gas-field/tsarichanskoye,Tsarichanskoye,726370445706.697998046875000,4972426.422000000253320,1015,Volga-Ural Region,p,1,604011631899.788940429687500,20681400.471999999135733,P
60,1,60,1,60,60,Äåìüÿíñêîå,ÎÎÎ «Ãàçïðîìíåôòü-Õàíòîñ»,Çèìíåå ìåñòîðîæäåíèå,oil,23.000000000000000,íåôòÿíîå,59.639290000000003,68.891139999999993,/oil-gas-field/zimnee,Zimnee,2285549626238.638183593750000,7942933.641999999992549,1174,West Siberian Basin,p,1,1991093993625.498046875000000,45775025.710000000894070,Pg
61,1,61,1,61,61,Õàíòû-Ìàíñèéñê,ÏÀÎ ""ÍÊ ""ÐÎÑÍÅÔÒÜ"",Çàïàäíî-Ýðãèíñêîå ìåñòîðîæäåíèå,oil,23.000000000000000,íåôòÿíîå,60.572221999999996,69.030277999999996,/oil-gas-field/zapadno-erginskoe,Zapadno Erginskoe,2285549626238.638183593750000,7942933.641999999992549,1174,West Siberian Basin,p,1,1991093993625.498046875000000,45775025.710000000894070,Pg
62,1,62,1,62,62,Íÿãàíü,ÎÎÎ «Ãàçïðîìíåôòü-Õàíòîñ»,Ïàëüÿíîâñêîå ìåñòîðîæäåíèå,oil,20.300000000000001,íåôòÿíîå,61.734119999999997,66.956170000000000,/oil-gas-field/palyanovskoye,Palyanovskoye,2285549626238.638183593750000,7942933.641999999992549,1174,West Siberian Basin,p,1,1991093993625.498046875000000,45775025.710000000894070,Pg
63,1,63,1,63,63,Òàðà,ÎÎÎ «Ãàçïðîìíåôòü-Âîñòîê»,Êðàïèâèíñêîå ìåñòîðîæäåíèå Þãî-Çàïàäíàÿ ÷àñòü,oil,20.000000000000000,íåôòÿíîå,57.906820000000003,75.539240000000007,/oil-gas-field/krapivinskoye,Krapivinskoye,2285549626238.638183593750000,7942933.641999999992549,1174,West Siberian Basin,p,1,274348615164.579986572265625,7957469.074000000022352,QT
64,1,64,1,64,64,Ãóáêèíñêèé,ÀÎ «Ãàçïðîìíåôòü-Íîÿáðüñêíåôòåãàç»,Åòû-Ïóðîâñêîå ìåñòîðîæäåíèå,oil-gas,20.000000000000000,íåôòåãàçîâîå,63.964509999999997,77.568960000000004,/oil-gas-field/eti-purovskoe,Eti Purovskoe,2285549626238.638183593750000,7942933.641999999992549,1174,West Siberian Basin,p,1,1991093993625.498046875000000,45775025.710000000894070,Pg
65,1,65,1,65,65,Êåäðîâûé,ÎÎÎ «Ãàçïðîìíåôòü-Âîñòîê»,Àð÷èíñêîå ìåñòîðîæäåíèå,oil-gas-condensate,18.219999999999999,íåôòåãàçîêîíäåíñàòíîå,57.494790000000002,78.465040000000002,/oil-gas-field/archinskoe,Archinskoe,2285549626238.638183593750000,7942933.641999999992549,1174,West Siberian Basin,p,1,1991093993625.498046875000000,45775025.710000000894070,Pg
66,1,66,1,66,66,Ñàëûì,ÎÎÎ «ÐÍ «Óâàòíåôòåãàç»,Êîñóõèíñêîå ìåñòîðîæäåíèå,oil,18.000000000000000,íåôòÿíîå,58.960555999999997,71.806111000000001,/oil-gas-field/kosukhinskoe,Kosukhinskoe,2285549626238.638183593750000,7942933.641999999992549,1174,West Siberian Basin,p,1,1991093993625.498046875000000,45775025.710000000894070,Pg
67,1,67,1,67,67,Íèæíåâàðòîâñê,ÎÎÎ «Ãàçïðîìíåôòü-Õàíòîñ»,Ìàëîþãàíñêîå ìåñòîðîæäåíèå,oil,17.300000000000001,íåôòÿíîå,60.183332999999998,75.083332999999996,/oil-gas-field/maloyuganskoe,Maloyuganskoe,2285549626238.638183593750000,7942933.641999999992549,1174,West Siberian Basin,p,1,1991093993625.498046875000000,45775025.710000000894070,Pg
68,1,68,1,68,68,Ìóðàâëåíêî,ÀÎ «Ãàçïðîìíåôòü-Íîÿáðüñêíåôòåãàç»,Ðîìàíîâñêîå ìåñòîðîæäåíèå,oil,17.100000000000001,íåôòÿíîå,63.839449999999999,73.983300000000000,/oil-gas-field/romanovskoe,Romanovskoe,2285549626238.638183593750000,7942933.641999999992549,1174,West Siberian Basin,p,1,1991093993625.498046875000000,45775025.710000000894070,Pg
69,1,69,1,69,69,Þæíî-Ñàõàëèíñê,Ýêñîí Íåôòåãàç Ëèìèòåä,Ìåñòîðîæäåíèå ×àéâî,oil-gas-condensate,14.000000000000000,íåôòåãàçîêîíäåíñàòíîå,52.422778000000001,143.449166999999989,/oil-gas-field/chayvo,Chayvo,85860508708.671997070312500,2387620.657999999821186,1322,North Sakhalin Basin,p,1,10059528710210.796875000000000,88017714.201000005006790,SEA
70,1,70,1,70,70,Òàðà,ÀÎ «Òîìñêíåôòü» ÂÍÊ,Èãîëüñêî-Òàëîâîå ìåñòîðîæäåíèå,oil,13.000000000000000,íåôòÿíîå,57.677356000000003,76.293182000000002,/oil-gas-field/igolsko-tall,Igolsko Tall,2285549626238.638183593750000,7942933.641999999992549,1174,West Siberian Basin,p,1,274348615164.579986572265625,7957469.074000000022352,QT
71,1,71,1,71,71,Íèæíåâàðòîâñê,ÎÎÎ «Ãàçïðîìíåôòü-Õàíòîñ»,Þæíîå ìåñòîðîæäåíèå,oil,12.900000000000000,íåôòÿíîå,60.622689999999999,75.982810000000001,/oil-gas-field/yuzhnoe,Yuzhnoe,2285549626238.638183593750000,7942933.641999999992549,1174,West Siberian Basin,p,1,1991093993625.498046875000000,45775025.710000000894070,Pg
72,1,72,1,72,72,Ñàðàòîâ,ÎÎÎ «ÍÊ ÃåîÏðîìÍåôòü»,Êëèíöîâñêîå ìåñòîðîæäåíèå,oil,12.000000000000000,íåôòÿíîå,51.658341000000000,49.199351999999998,/oil-gas-field/klintsovsky,Klintsovsky,726370445706.697998046875000,4972426.422000000253320,1015,Volga-Ural Region,p,1,626721419021.604980468750000,19300571.103999998420477,N
73,1,73,1,73,73,Òîáîëüñê,ÎÎÎ «ÐÍ «Óâàòíåôòåãàç»,Ïðîòîçàíîâñêîå ìåñòîðîæäåíèå,oil,12.000000000000000,íåôòÿíîå,58.923613000000003,72.790431999999996,/oil-gas-field/protozanovskoe,Protozanovskoe,2285549626238.638183593750000,7942933.641999999992549,1174,West Siberian Basin,p,1,1991093993625.498046875000000,45775025.710000000894070,Pg
74,1,74,1,74,74,Ïûòü-ßõ,ÎÎÎ «ÐÍ-Þãàíñêíåôòåãàç»,Ìåñòîðîæäåíèå èì. Ìîñêîâöåâà,oil,11.000000000000000,íåôòÿíîå,60.060833000000002,72.731388999999993,/oil-gas-field/moscovets,Moscovets,2285549626238.638183593750000,7942933.641999999992549,1174,West Siberian Basin,p,1,1991093993625.498046875000000,45775025.710000000894070,Pg
75,1,75,1,75,75,Òîìñê,ÀÎ ÍÊ ""ÐóññÍåôòü"",Þæíî-Ìûëüäæèíñêîå ìåñòîðîæäåíèå,oil,10.500000000000000,íåôòÿíîå,58.522568000000000,78.138026999999994,/oil-gas-field/yuzhno-myldzhinskoe,Yuzhno Myldzhinskoe,2285549626238.638183593750000,7942933.641999999992549,1174,West Siberian Basin,p,1,1991093993625.498046875000000,45775025.710000000894070,Pg
76,1,76,1,76,76,Èðêóòñê,ÀÎ «ÈÍÊ-Çàïàä»,È÷åäèíñêîå ìåñòîðîæäåíèå,oil,10.000000000000000,íåôòÿíîå,57.874229000000000,105.786804000000004,/oil-gas-field/ichedinskoe,Ichedinskoe,360115965584.392028808593750,3295676.089999999850988,1210,Nepa-Botuoba Arch,p,1,130081261281.199005126953125,6486465.122999999672174,O
77,1,77,1,77,77,Óñèíñê,ÎÎÎ ""Åíèñåé"",Çàïàäíî-Ñûíàòûñêîå ìåñòîðîæäåíèå,oil-gas,9.000000000000000,íåôòåãàçîâîå,66.321240000000003,57.227097000000001,/oil-gas-field/west-synat,West Synat,450939701379.052001953125000,3262746.402999999932945,1008,Timan-Pechora Basin,p,1,34088606601.536998748779297,2475141.949000000022352,J
78,1,78,1,78,78,Íîâûé Óðåíãîé,ÏÀÎ ""ÍÊ ""ÐÎÑÍÅÔÒÜ"",Áåðåãîâîå ìåñòîðîæäåíèå,gas-condensate,9.000000000000000,ãàçîêîíäåíñàòíîå,65.832873000000006,78.852310000000003,/oil-gas-field/beregovoe,Beregovoe,2285549626238.638183593750000,7942933.641999999992549,1174,West Siberian Basin,p,1,1991093993625.498046875000000,45775025.710000000894070,Pg
79,1,79,1,79,79,Õàíòû-Ìàíñèéñê,ÎÀÎ ""Ñóðãóòíåôòåãàç"",Þæíî-Íþðûìñêîå ìåñòîðîæäåíèå,oil,8.500000000000000,íåôòÿíîå,59.684987999999997,69.913387000000000,/oil-gas-field/yuzhno-nyurymskoe,Yuzhno Nyurymskoe,2285549626238.638183593750000,7942933.641999999992549,1174,West Siberian Basin,p,1,1991093993625.498046875000000,45775025.710000000894070,Pg
80,1,80,1,80,80,Ñîðî÷èíñê,ÎÎÎ «Ãàçïðîìíåôòü-Îðåíáóðã»,Áàëåéêèíñêîå ìåñòîðîæäåíèå,oil,7.220000000000000,íåôòÿíîå,52.451819999999998,53.732750000000003,/oil-gas-field/baleykinskoe,Baleykinskoe,726370445706.697998046875000,4972426.422000000253320,1015,Volga-Ural Region,p,1,604011631899.788940429687500,20681400.471999999135733,P
81,1,81,1,81,81,Îõà,ÏÀÎ ""ÍÊ ""ÐÎÑÍÅÔÒÜ"",Ìåñòîðîæäåíèå Òóíãîð,oil-gas-condensate,6.870000000000000,íåôòåãàçîêîíäåíñàòíîå,53.383333000000000,142.966667000000001,/oil-gas-field/tungor,Tungor,85860508708.671997070312500,2387620.657999999821186,1322,North Sakhalin Basin,p,1,34754057488.655998229980469,2601912.236000000033528,N
82,1,82,1,82,82,Íèæíåâàðòîâñê,ÎÎÎ «Ãàçïðîìíåôòü-Õàíòîñ»,Îðåõîâî-Åðìàêîâñêîå ìåñòîðîæäåíèå,oil,6.800000000000000,íåôòÿíîå,60.832189999999997,75.732870000000005,/oil-gas-field/orehovo-ermakovskoe,Orehovo Ermakovskoe,2285549626238.638183593750000,7942933.641999999992549,1174,West Siberian Basin,p,1,1991093993625.498046875000000,45775025.710000000894070,Pg
83,1,83,1,83,83,Òàçîâñêèé,ÎÎÎ «ÍÎÂÀÒÝÊ-ÒÀÐÊÎÑÀËÅÍÅÔÒÅÃÀÇ»,Ñåâåðî-Ðóññêîå ìåñòîðîæäåíèå,gas-condensate,6.500000000000000,ãàçîêîíäåíñàòíîå,67.162778000000003,80.235277999999994,/oil-gas-field/north-russkoe,North Russkoe,2285549626238.638183593750000,7942933.641999999992549,1174,West Siberian Basin,p,1,1991093993625.498046875000000,45775025.710000000894070,Pg
84,1,84,1,84,84,Îðåíáóðã,ÎÎÎ «Ãàçïðîìíåôòü-Îðåíáóðã»,Êàïèòîíîâñêîå ìåñòîðîæäåíèå,oil-gas,5.800000000000000,íåôòåãàçîâîå,52.032209999999999,54.025260000000003,/oil-gas-field/kapitonovskoye,Kapitonovskoye,726370445706.697998046875000,4972426.422000000253320,1015,Volga-Ural Region,p,1,8449014828.029999732971191,1941975.810999999986961,Tr
85,1,85,1,85,85,Íåôòåãîðñê,ÀÎ ""Ñàìàðàíåôòåãàç"",Êóëåøîâñêîå ìåñòîðîæäåíèå,oil,5.100000000000000,íåôòÿíîå,52.847416000000003,51.209592999999998,/oil-gas-field/kuleshovskoe,Kuleshovskoe,726370445706.697998046875000,4972426.422000000253320,1015,Volga-Ural Region,p,1,8449014828.029999732971191,1941975.810999999986961,Tr
86,1,86,1,86,86,Áàðèíîâêà,ÀÎ ""Ñàìàðàíåôòåãàç"",Áàðèíîâñêî-Ëåáÿæèíñêîå ìåñòîðîæäåíèå,oil,4.600000000000000,íåôòÿíîå,52.907349000000004,50.854855000000001,/oil-gas-field/barinovsko-lebyazhinskoe,Barinovsko Lebyazhinskoe,726370445706.697998046875000,4972426.422000000253320,1015,Volga-Ural Region,p,1,626721419021.604980468750000,19300571.103999998420477,N
87,1,87,1,87,87,Îòðàäíûé,ÀÎ ""Ñàìàðàíåôòåãàç"",Ìóõàíîâñêîå ìåñòîðîæäåíèå,oil,4.100000000000000,íåôòÿíîå,53.338355999999997,51.534976999999998,/oil-gas-field/muhanovskoe,Muhanovskoe,726370445706.697998046875000,4972426.422000000253320,1015,Volga-Ural Region,p,1,604011631899.788940429687500,20681400.471999999135733,P
88,1,88,1,88,88,Òûìîâñêîå,ÏÀÎ «Ãàçïðîì»,Þæíî-Êèðèíñêîå ìåñòîðîæäåíèå,gas-condensate,4.100000000000000,ãàçîêîíäåíñàòíîå,51.177621000000002,144.294433999999995,/oil-gas-field/south-kirinskoe,South Kirinskoe,85860508708.671997070312500,2387620.657999999821186,1322,North Sakhalin Basin,p,1,10059528710210.796875000000000,88017714.201000005006790,SEA
89,1,89,1,89,89,Íåôòåãîðñê,ÀÎ ""Ñàìàðàíåôòåãàç"",Óòåâñêîå ìåñòîðîæäåíèå,oil,3.940000000000000,íåôòÿíîå,52.882702000000002,51.017674999999997,/oil-gas-field/utevskoe,Utevskoe,726370445706.697998046875000,4972426.422000000253320,1015,Volga-Ural Region,p,1,626721419021.604980468750000,19300571.103999998420477,N
90,1,90,1,90,90,Íèæíåâàðòîâñê,ÎÎÎ «Ãàçïðîìíåôòü-Õàíòîñ»,Þæíî-Êèíÿìèíñêîå ìåñòîðîæäåíèå,oil,3.700000000000000,íåôòÿíîå,60.180450000000000,75.140990000000002,/oil-gas-field/south-kinyaminskoe,South Kinyaminskoe,2285549626238.638183593750000,7942933.641999999992549,1174,West Siberian Basin,p,1,1991093993625.498046875000000,45775025.710000000894070,Pg
91,1,91,1,91,91,Áàòàéñê,ÎÎÎ «Ãàçïðîì äîáû÷à Êðàñíîäàð»,Àçîâñêîå ìåñòîðîæäåíèå,oil-gas,3.190000000000000,íåôòåãàçîâîå,44.866667000000000,38.698611000000000,/oil-gas-field/azovskoye,Azovskoye,162966952816.980010986328125,1900141.053000000072643,1108,Azov-Kuban Basin,p,1,626721419021.604980468750000,19300571.103999998420477,N
92,1,92,1,92,92,Àñòðàõàíü,ÏÀÎ ""ËÓÊÎÉË"",Õâàëûíñêîå ìåñòîðîæäåíèå,oil-gas-condensate,2.000000000000000,íåôòåãàçîêîíäåíñàòíîå,44.215833000000003,49.286667000000001,/oil-gas-field/hvalinskoe,Hvalinskoe,424289671751.504028320312500,4260165.265999999828637,1109,Middle Caspian Basin,p,1,409082547603.734008789062500,6944516.891999999992549,SEA
93,1,93,1,93,93,Òàðà,ÀÎ «Òîìñêíåôòü» ÂÍÊ,Äâóðå÷åíñêîå ìåñòîðîæäåíèå,oil,1.800000000000000,íåôòÿíîå,58.276173999999997,75.752059000000003,/oil-gas-field/dvurechenskoe,Dvurechenskoe,2285549626238.638183593750000,7942933.641999999992549,1174,West Siberian Basin,p,1,1991093993625.498046875000000,45775025.710000000894070,Pg
94,1,94,1,94,94,Êåäðîâûé,ÎÎÎ «Ãàçïðîìíåôòü-Âîñòîê»,Øèíãèíñêîå ìåñòîðîæäåíèå,oil-gas-condensate,1.200000000000000,íåôòåãàçîêîíäåíñàòíîå,58.318860000000001,78.503489999999999,/oil-gas-field/shinginskoye,Shinginskoye,2285549626238.638183593750000,7942933.641999999992549,1174,West Siberian Basin,p,1,1991093993625.498046875000000,45775025.710000000894070,Pg
95,1,95,1,95,95,Îðåíáóðã,ÎÎÎ ""Ãàçïðîì äîáû÷à Îðåíáóðã"",Íàãóìàíîâñêîå ìåñòîðîæäåíèå,oil-gas-condensate,0.960000000000000,íåôòåãàçîêîíäåíñàòíîå,51.305278000000001,55.306944000000001,/oil-gas-field/nagumanovskoye,Nagumanovskoye,726370445706.697998046875000,4972426.422000000253320,1015,Volga-Ural Region,p,1,1427534656.947000026702881,288771.976000000024214,Tr
96,1,96,1,96,97,Êåäðîâûé,ÎÎÎ «Ãàçïðîìíåôòü-Âîñòîê»,Çàïàäíî-Ëóãèíåöêîå ìåñòîðîæäåíèå,oil,,íåôòÿíîå,58.078960000000002,78.660039999999995,/oil-gas-field/zapadno-luginetskoye,Zapadno Luginetskoye,2285549626238.638183593750000,7942933.641999999992549,1174,West Siberian Basin,p,1,1991093993625.498046875000000,45775025.710000000894070,Pg
97,1,97,1,97,98,Êåäðîâûé,ÎÎÎ «Ãàçïðîìíåôòü-Âîñòîê»,Íèæíåëóãèíåöêîå ìåñòîðîæäåíèå,oil,,íåôòÿíîå,58.176850000000002,78.698499999999996,/oil-gas-field/nizhneluginetskoye,Nizhneluginetskoye,2285549626238.638183593750000,7942933.641999999992549,1174,West Siberian Basin,p,1,1991093993625.498046875000000,45775025.710000000894070,Pg
98,1,98,1,98,99,Ìóðàâëåíêî,ÀÎ «Ãàçïðîìíåôòü-Íîÿáðüñêíåôòåãàç»,Ñóòîðìèíñêîå ìåñòîðîæäåíèå,oil-gas,,íåôòåãàçîâîå,63.770949999999999,74.686430000000001,/oil-gas-field/sutorminskoye,Sutorminskoye,2285549626238.638183593750000,7942933.641999999992549,1174,West Siberian Basin,p,1,1991093993625.498046875000000,45775025.710000000894070,Pg
99,1,99,1,99,100,Ìóðàâëåíêî,ÀÎ «Ãàçïðîìíåôòü-Íîÿáðüñêíåôòåãàç»,Ìóðàâëåíêîâñêîå ìåñòîðîæäåíèå,gas-oil,,ãàçîíåôòÿíîå,63.995229999999999,74.884180000000001,/oil-gas-field/muravlenkovskoye,Muravlenkovskoye,2285549626238.638183593750000,7942933.641999999992549,1174,West Siberian Basin,p,1,1991093993625.498046875000000,45775025.710000000894070,Pg
100,1,100,1,100,101,Ãóáêèíñêèé,ÏÀÎ ""ÍÊ ""ÐÎÑÍÅÔÒÜ"",Íîâî-Ïóðïåéñêîå ìåñòîðîæäåíèå,oil,,íåôòÿíîå,64.186650000000000,75.422510000000003,/oil-gas-field/novo-purpeiskoe,Novo Purpeiskoe,2285549626238.638183593750000,7942933.641999999992549,1174,West Siberian Basin,p,1,1991093993625.498046875000000,45775025.710000000894070,Pg
101,1,101,1,101,102,Ìóðàâëåíêî,ÀÎ «Ãàçïðîìíåôòü-Íîÿáðüñêíåôòåãàç»,Óìñåéñêîå ìåñòîðîæäåíèå,oil-gas-condensate,,íåôòåãàçîêîíäåíñàòíîå,64.148949999999999,74.473569999999995,/oil-gas-field/usmeiskoe,Usmeiskoe,2285549626238.638183593750000,7942933.641999999992549,1174,West Siberian Basin,p,1,1991093993625.498046875000000,45775025.710000000894070,Pg
102,1,102,1,102,103,Ìóðàâëåíêî,ÀÎ «Ãàçïðîìíåôòü-Íîÿáðüñêíåôòåãàç»,Ñåâåðî-ßíãòèíñêîå ìåñòîðîæäåíèå,oil-gas,,íåôòåãàçîâîå,64.242199999999997,74.934989999999999,/oil-gas-field/severo-yangtinskoe,Severo Yangtinskoe,2285549626238.638183593750000,7942933.641999999992549,1174,West Siberian Basin,p,1,1991093993625.498046875000000,45775025.710000000894070,Pg
103,1,103,1,103,104,Ìóðàâëåíêî,ÀÎ «Ãàçïðîìíåôòü-Íîÿáðüñêíåôòåãàç»,Ñåâåðî-Ïàìàëèÿõñêîå,oil,,íåôòÿíîå,64.002449999999996,74.246970000000005,/oil-gas-field/severo-pamalihinskoe,Severo Pamalihinskoe,2285549626238.638183593750000,7942933.641999999992549,1174,West Siberian Basin,p,1,1991093993625.498046875000000,45775025.710000000894070,Pg
104,1,104,1,104,105,Íîÿáðüñê,ÀÎ «Ãàçïðîìíåôòü-Íîÿáðüñêíåôòåãàç»,Êàðàìîâñêîå ìåñòîðîæäåíèå,oil,,íåôòÿíîå,63.247230000000002,74.561459999999997,/oil-gas-field/karamovskoe,Karamovskoe,2285549626238.638183593750000,7942933.641999999992549,1174,West Siberian Basin,p,1,1991093993625.498046875000000,45775025.710000000894070,Pg
105,1,105,1,105,106,Íîÿáðüñê,ÀÎ «Ãàçïðîìíåôòü-Íîÿáðüñêíåôòåãàç»,Ïîãðàíè÷íîå ìåñòîðîæäåíèå,oil,,íåôòÿíîå,62.891460000000002,75.248099999999994,/oil-gas-field/pogranichnoe,Pogranichnoe,2285549626238.638183593750000,7942933.641999999992549,1174,West Siberian Basin,p,1,1991093993625.498046875000000,45775025.710000000894070,Pg
106,1,106,1,106,107,Íîÿáðüñê,ÀÎ «Ãàçïðîìíåôòü-Íîÿáðüñêíåôòåãàç»,Ñðåäíå-Èòóðñêîå ìåñòîðîæäåíèå,oil,,íåôòÿíîå,63.406889999999997,74.781180000000006,/oil-gas-field/sredne-iturskoe,Sredne Iturskoe,2285549626238.638183593750000,7942933.641999999992549,1174,West Siberian Basin,p,1,1991093993625.498046875000000,45775025.710000000894070,Pg
107,1,107,1,107,108,Íîÿáðüñê,ÀÎ «Ãàçïðîìíåôòü-Íîÿáðüñêíåôòåãàç»,Çàïàäíî-Íîÿáðüñêîå ìåñòîðîæäåíèå,oil,,íåôòÿíîå,63.444980000000001,74.996790000000004,/oil-gas-field/zapadno-noyabrskoe,Zapadno Noyabrskoe,2285549626238.638183593750000,7942933.641999999992549,1174,West Siberian Basin,p,1,1991093993625.498046875000000,45775025.710000000894070,Pg
108,1,108,1,108,109,Íîÿáðüñê,ÀÎ «Ãàçïðîìíåôòü-Íîÿáðüñêíåôòåãàç»,Íîâîãîäíåå ìåñòîðîæäåíèå,oil,,íåôòÿíîå,63.444369999999999,76.929010000000005,/oil-gas-field/novogodnee,Novogodnee,2285549626238.638183593750000,7942933.641999999992549,1174,West Siberian Basin,p,1,1991093993625.498046875000000,45775025.710000000894070,Pg
109,1,109,1,109,110,Íîÿáðüñê,ÀÎ «Ãàçïðîìíåôòü-Íîÿáðüñêíåôòåãàç»,ßðàéíåðñêîå ìåñòîðîæäåíèå,oil,,íåôòÿíîå,63.149389999999997,77.832639999999998,/oil-gas-field/yarainerskoye,Yarainerskoye,2285549626238.638183593750000,7942933.641999999992549,1174,West Siberian Basin,p,1,1991093993625.498046875000000,45775025.710000000894070,Pg
110,1,110,1,110,111,Íîÿáðüñê,ÀÎ «Ãàçïðîìíåôòü-Íîÿáðüñêíåôòåãàç»,Õîëìèñòîå ìåñòîðîæäåíèå,oil-gas,,íåôòåãàçîâîå,63.231150000000000,80.068349999999995,/oil-gas-field/holmistoe,Holmistoe,2285549626238.638183593750000,7942933.641999999992549,1174,West Siberian Basin,p,1,1991093993625.498046875000000,45775025.710000000894070,Pg
111,1,111,1,111,112,Íîÿáðüñê,ÀÎ «Ãàçïðîìíåôòü-Íîÿáðüñêíåôòåãàç»,×àòûëüêèíñêîå ìåñòîðîæäåíèå,oil,,íåôòÿíîå,63.446210000000001,80.982969999999995,/oil-gas-field/chatylkinskoe,Chatylkinskoe,2285549626238.638183593750000,7942933.641999999992549,1174,West Siberian Basin,p,1,1991093993625.498046875000000,45775025.710000000894070,Pg
112,1,112,1,112,113,Íîÿáðüñê,ÀÎ «Ãàçïðîìíåôòü-Íîÿáðüñêíåôòåãàç»,Âîðãåíñêîå ìåñòîðîæäåíèå,oil,,íåôòÿíîå,63.166130000000003,81.219170000000005,/oil-gas-field/vorgenskoye,Vorgenskoye,2285549626238.638183593750000,7942933.641999999992549,1174,West Siberian Basin,p,1,1991093993625.498046875000000,45775025.710000000894070,Pg
113,1,113,1,113,114,Îðåíáóðã,ÎÎÎ «Ãàçïðîìíåôòü-Îðåíáóðã»,Îðåíáóðãñêîå ìåñòîðîæäåíèå (Âîñòî÷íûé ó÷àñòîê),oil-gas-condensate,,íåôòåãàçîêîíäåíñàòíîå,51.637619999999998,55.408169999999998,/oil-gas-field/orenburgskoe,Orenburgskoe,726370445706.697998046875000,4972426.422000000253320,1015,Volga-Ural Region,p,1,626721419021.604980468750000,19300571.103999998420477,N
114,1,114,1,114,117,Õàíòû-Ìàíñèéñê,ÏÀÎ ""ÍÊ ""ÐÎÑÍÅÔÒÜ"",Ïðèîáñêîå ìåñòîðîæäåíèå (ñåâåðíàÿ ëèöåíçèîííàÿ òåððèòîðèÿ (ÑËÒ)),oil,,íåôòÿíîå,61.323656000000000,70.298766999999998,/oil-gas-field/priobskoe-north,Priobskoe North,2285549626238.638183593750000,7942933.641999999992549,1174,West Siberian Basin,p,1,1991093993625.498046875000000,45775025.710000000894070,Pg
115,1,115,1,115,118,Ñàìàðà,ÀÎ ""Ñàìàðàíåôòåãàç"",Þæíî-Îðëîâñêîå ìåñòîðîæäåíèå,oil,,íåôòÿíîå,53.713574000000001,50.809364000000002,/oil-gas-field/yzhno-orlovskoe,Yzhno Orlovskoe,726370445706.697998046875000,4972426.422000000253320,1015,Volga-Ural Region,p,1,604011631899.788940429687500,20681400.471999999135733,P
116,1,116,1,116,119,Èæåâñê,ÎÀÎ ""Óäìóðòíåôòü"",Àðõàíãåëüñêîå ìåñòîðîæäåíèå,oil,,íåôòÿíîå,56.717695999999997,52.534218000000003,/oil-gas-field/arhangelskoe,Arhangelskoe,726370445706.697998046875000,4972426.422000000253320,1015,Volga-Ural Region,p,1,604011631899.788940429687500,20681400.471999999135733,P
117,1,117,1,117,120,Êèåíãîï,ÎÀÎ ""Óäìóðòíåôòü"",Êèåíãîïñêîå ìåñòîðîæäåíèå,oil,,íåôòÿíîå,57.269019999999998,53.361969000000002,/oil-gas-field/kiengopskoe,Kiengopskoe,726370445706.697998046875000,4972426.422000000253320,1015,Volga-Ural Region,p,1,604011631899.788940429687500,20681400.471999999135733,P
118,1,118,1,118,121,Èãðà,ÎÀÎ ""Óäìóðòíåôòü"",×óòûðñêîå ìåñòîðîæäåíèå,oil,,íåôòÿíîå,57.678457000000002,52.932129000000003,/oil-gas-field/chutirskoe,Chutirskoe,726370445706.697998046875000,4972426.422000000253320,1015,Volga-Ural Region,p,1,604011631899.788940429687500,20681400.471999999135733,P
119,1,119,1,119,122,Êóíãóð,ÎÎÎ ""ËÓÊÎÉË-ÏÅÐÌÜ"",Èëüè÷åâñêîå ìåñòîðîæäåíèå,oil,,íåôòÿíîå,57.936771000000000,56.842917999999997,/oil-gas-field/illichivskoe,Illichivskoe,726370445706.697998046875000,4972426.422000000253320,1015,Volga-Ural Region,p,1,604011631899.788940429687500,20681400.471999999135733,P
120,1,120,1,120,123,Íèæíåâàðòîâñê,ÀÎ «Òîìñêíåôòü» ÂÍÊ,Çàïàäíî-Ïîëóäåííîå ìåñòîðîæäåíèå,oil,,íåôòÿíîå,60.574151000000001,76.500549000000007,/oil-gas-field/zapadno-poludennoe,Zapadno Poludennoe,2285549626238.638183593750000,7942933.641999999992549,1174,West Siberian Basin,p,1,1991093993625.498046875000000,45775025.710000000894070,Pg
121,1,121,1,121,124,Íîâûé Óðåíãîé,ÀÎ ""Ìåññîÿõàíåôòåãàç"",Çàïàäíî-Ìåññîÿõñêîå ìåñòîðîæäåíèå,oil-gas,,íåôòåãàçîâîå,68.494467000000000,78.364277000000001,/oil-gas-field/zapadno-messoyakhskoye,Zapadno Messoyakhskoye,2285549626238.638183593750000,7942933.641999999992549,1174,West Siberian Basin,p,1,1991093993625.498046875000000,45775025.710000000894070,Pg
122,1,122,1,122,125,Íîâûé Óðåíãîé,ÀÎ ""Ìåññîÿõàíåôòåãàç"",Âîñòî÷íî-Ìåññîÿõñêîå ìåñòîðîæäåíèå,oil-gas,,íåôòåãàçîâîå,68.510570999999999,79.748553999999999,/oil-gas-field/vostochno-messoyakhskoye,Vostochno Messoyakhskoye,2285549626238.638183593750000,7942933.641999999992549,1174,West Siberian Basin,p,1,1991093993625.498046875000000,45775025.710000000894070,Pg
123,1,123,1,123,126,Ñàáåòòà,ÎÀÎ ""ßìàë ÑÏÃ"",Þæíî-Òàìáåéñêîå ìåñòîðîæäåíèå,gas-condensate,,ãàçîêîíäåíñàòíîå,71.309156000000002,71.858825999999993,/oil-gas-field/yuzhno-tambeyskoye,Yuzhno Tambeyskoye,2285549626238.638183593750000,7942933.641999999992549,1174,West Siberian Basin,p,1,79346903486.179000854492188,2485392.078000000212342,Pg
124,1,124,1,124,127,Þðõàðîâî,ÀÎ «Íîðòãàç»,Ñåâåðî-Óðåíãîéñêîå ìåñòîðîæäåíèå,gas-condensate,,ãàçîêîíäåíñàòíîå,67.512771000000001,76.637878000000001,/oil-gas-field/severo-urengoyskoe,Severo Urengoyskoe,2285549626238.638183593750000,7942933.641999999992549,1174,West Siberian Basin,p,1,1991093993625.498046875000000,45775025.710000000894070,Pg
125,1,125,1,125,128,Þðõàðîâî,ÎÎÎ «ÍÎÂÀÒÝÊ-ÞÐÕÀÐÎÂÍÅÔÒÅÃÀÇ»,Þðõàðîâñêîå ìåñòîðîæäåíèå,oil-gas-condensate,,íåôòåãàçîêîíäåíñàòíîå,67.785892000000004,77.052611999999996,/oil-gas-field/yurkharovskoye,Yurkharovskoye,2285549626238.638183593750000,7942933.641999999992549,1174,West Siberian Basin,p,1,1991093993625.498046875000000,45775025.710000000894070,Pg
126,1,126,1,126,129,Òàðêî-Ñàëå,ÎÎÎ «ÍÎÂÀÒÝÊ-ÒÀÐÊÎÑÀËÅÍÅÔÒÅÃÀÇ»,Âîñòî÷íî-Òàðêîñàëèíñêîå ìåñòîðîæäåíèå,oil-gas-condensate,,íåôòåãàçîêîíäåíñàòíîå,65.025784999999999,78.189696999999995,/oil-gas-field/east-tarkosalinskoye,East Tarkosalinskoye,2285549626238.638183593750000,7942933.641999999992549,1174,West Siberian Basin,p,1,1991093993625.498046875000000,45775025.710000000894070,Pg
127,1,127,1,127,130,Òàðêî-Ñàëå,ÎÎÎ «ÍÎÂÀÒÝÊ-ÒÀÐÊÎÑÀËÅÍÅÔÒÅÃÀÇ»,Õàí÷åéñêîå ìåñòîðîæäåíèå,gas-condensate,,ãàçîêîíäåíñàòíîå,64.949720999999997,78.398437999999999,/oil-gas-field/khancheyskoye,Khancheyskoye,2285549626238.638183593750000,7942933.641999999992549,1174,West Siberian Basin,p,1,1991093993625.498046875000000,45775025.710000000894070,Pg
128,1,128,1,128,131,Íîâûé Óðåíãîé,ÎÀÎ ""Àðêòèêãàç"" (""ÀÐÊÒÈ×ÅÑÊÀß ÃÀÇÎÂÀß ÊÎÌÏÀÍÈß""),Ñàìáóðãñêèé ëèöåíçèîííûé ó÷àñòîê (Ñàìáóðãñêîå ìåñòîðîæäåíèå),gas-condensate,,ãàçîêîíäåíñàòíîå,66.549970999999999,77.193889999999996,/oil-gas-field/samburg-license-area,Samburg License Area,2285549626238.638183593750000,7942933.641999999992549,1174,West Siberian Basin,p,1,1991093993625.498046875000000,45775025.710000000894070,Pg
129,1,129,1,129,132,Íîâûé Óðåíãîé,ÎÀÎ ""Àðêòèêãàç"" (""ÀÐÊÒÈ×ÅÑÊÀß ÃÀÇÎÂÀß ÊÎÌÏÀÍÈß""),Óðåíãîéñêîå ìåñòîðîæäåíèå ÎÀÎ «ÀÐÊÒÈÊÃÀÇ»,oil-gas-condensate,,íåôòåãàçîêîíäåíñàòíîå,66.477112000000005,77.104797000000005,/oil-gas-field/urengoi-oil-field-arcticgaz,Urengoi Oil Field Arcticgaz,2285549626238.638183593750000,7942933.641999999992549,1174,West Siberian Basin,p,1,1991093993625.498046875000000,45775025.710000000894070,Pg
130,1,130,1,130,133,Óðåíãîé,ÎÀÎ ""Àðêòèêãàç"" (""ÀÐÊÒÈ×ÅÑÊÀß ÃÀÇÎÂÀß ÊÎÌÏÀÍÈß""),ßðî-ßõèíñêîå ìåñòîðîæäåíèå (ßðî-ßõèíñêèé ëèöåíçèîííûé ó÷àñòîê),oil-gas-condensate,,íåôòåãàçîêîíäåíñàòíîå,66.260568000000006,78.713779000000002,/oil-gas-field/jaro-yakhinsky-license-area,Jaro Yakhinsky License Area,2285549626238.638183593750000,7942933.641999999992549,1174,West Siberian Basin,p,1,1991093993625.498046875000000,45775025.710000000894070,Pg
131,1,131,1,131,134,ßðû,Ñîáñòâåííèê/Èíâåñòîð,Þìáúÿõñêîå ìåñòîðîæäåíèå,gas-condensate,,ãàçîêîíäåíñàòíîå,68.659554000000000,67.854309000000001,/oil-gas-field/yumbyakhskoe,Yumbyakhskoe,813475145459.843017578125000,9317779.810000000521541,1017,Ural-Novaya Zemlya Foldbelt, ,0,10059528710210.796875000000000,88017714.201000005006790,SEA
132,1,132,1,132,135,Ìóíãóé,ÀÎ ""ÒÀÉÌÛÐÍÅÔÒÅÃÀÇ"",Ñåâåðî-Ïàéÿõñêîå ìåñòîðîæäåíèå,oil,,íåôòÿíîå,70.500001999999995,84.497810999999999,/oil-gas-field/north-payakhskoe,North Payakhskoe,309349807114.385009765625000,2917333.015000000130385,1175,Yenisey-Khatanga Basin, ,0,1052942730417.592041015625000,23622380.964999999850988,K
133,1,133,1,133,136,Êèðåíñê,ÀÎ ""ÂÅÐÕÍÅ×ÎÍÑÊÍÅÔÒÅÃÀÇ"" (ÀÎ ""Â×ÍÃ""),Ñåâåðî-Äàíèëîâñêîå ìåñòîðîæäåíèå,oil-gas-condensate,,íåôòåãàçîêîíäåíñàòíîå,59.466012999999997,108.076629999999994,/oil-gas-field/north-danilovskoe,North Danilovskoe,360115965584.392028808593750,3295676.089999999850988,1210,Nepa-Botuoba Arch,p,1,173720350176.319000244140625,12617611.766000000759959,Cm
134,1,134,1,134,137,Þæíî-Ñàõàëèíñê,ÎÎÎ ""Âåíèíåôòü"",Ñåâåðî-Âåíèíñêîå ìåñòîðîæäåíèå,gas-condensate,,ãàçîêîíäåíñàòíîå,51.964576999999998,143.245238999999998,/oil-gas-field/north-veninskoe,North Veninskoe,85860508708.671997070312500,2387620.657999999821186,1322,North Sakhalin Basin,p,1,16361585.282999999821186,24830.490000000001601,N
135,1,135,1,135,138,Òàçîâñêèé,ÎÎÎ «ÍÎÂÀÒÝÊ-ÒÀÐÊÎÑÀËÅÍÅÔÒÅÃÀÇ»,Äîðîãîâñêîå ìåñòîðîæäåíèå,oil-gas-condensate,,íåôòåãàçîêîíäåíñàòíîå,67.221052999999998,81.716308999999995,/oil-gas-field/dorogovskoe,Dorogovskoe,2285549626238.638183593750000,7942933.641999999992549,1174,West Siberian Basin,p,1,1991093993625.498046875000000,45775025.710000000894070,Pg
136,1,136,1,136,139,Òîáîëüñê,ÎÎÎ «ÐÍ «Óâàòíåôòåãàç»,Óñòü-Òåãóññêîå ìåñòîðîæäåíèå,oil,,íåôòÿíîå,58.718359999999997,73.992435000000000,/oil-gas-field/ust-tegusskoe,Ust Tegusskoe,2285549626238.638183593750000,7942933.641999999992549,1174,West Siberian Basin,p,1,1991093993625.498046875000000,45775025.710000000894070,Pg
137,1,137,1,137,140,Íèæíåâàðòîâñê,ÀÎ «Ñàìîòëîðíåôòåãàç»,Ñàìîòëîðñêîå ìåñòîðîæäåíèå,oil,,íåôòÿíîå,61.052599999999998,76.828800000000001,/oil-gas-field/samotlor,Samotlor,2285549626238.638183593750000,7942933.641999999992549,1174,West Siberian Basin,p,1,1991093993625.498046875000000,45775025.710000000894070,Pg
138,1,138,1,138,141,Àëüìåòüåâñê,ÏÀÎ «Òàòíåôòü»,Ðîìàøêèíñêîå ìåñòîðîæäåíèå,oil,,íåôòÿíîå,54.572957000000002,52.369486999999999,/oil-gas-field/romashkinskoye,Romashkinskoye,726370445706.697998046875000,4972426.422000000253320,1015,Volga-Ural Region,p,1,604011631899.788940429687500,20681400.471999999135733,P
139,1,139,1,139,142,Àòûðàó,ÀÎ ""ÊîÆàí"",Ìîðñêîå ìåñòîðîæäåíèå,oil,,íåôòÿíîå,46.675826000000001,53.040619000000000,/oil-gas-field/morskoe,Morskoe,546688741566.757995605468750,2862387.569999999832362,1016,North Caspian Basin,p,1,409082547603.734008789062500,6944516.891999999992549,SEA
140,1,140,1,140,143,Õàðüÿãà,ÀÎ ""Çàðóáåæíåôòü"",Õàðüÿãèíñêîå ìåñòîðîæäåíèå,oil,,íåôòÿíîå,67.142167000000001,56.653055999999999,/oil-gas-field/kharyaga,Kharyaga,450939701379.052001953125000,3262746.402999999932945,1008,Timan-Pechora Basin,p,1,109204210740.423004150390625,3242898.160000000149012,K
141,1,141,1,141,144,Íåôòåþãàíñê,ÎÎÎ «ÐÍ-Þãàíñêíåôòåãàç»,Ìàìîíòîâñêîå ìåñòîðîæäåíèå,oil,,íåôòÿíîå,60.749766999999999,72.910079999999994,/oil-gas-field/mamontovskoe,Mamontovskoe,2285549626238.638183593750000,7942933.641999999992549,1174,West Siberian Basin,p,1,1991093993625.498046875000000,45775025.710000000894070,Pg
142,1,142,1,142,145,Õàíòû-Ìàíñèéñê,ÎÎÎ «ËÓÊÎÉË-Çàïàäíàÿ Ñèáèðü»,Êàìåííûé ëèöåíçèîííûé ó÷àñòîê (âîñòî÷íàÿ ÷àñòü Êðàñíîëåíèíñêîãî ìåñòîðîæäåíèÿ),oil-gas,,íåôòåãàçîâîå,61.369751999999998,67.483520999999996,/oil-gas-field/kamennoe-east,Kamennoe East,2285549626238.638183593750000,7942933.641999999992549,1174,West Siberian Basin,p,1,1991093993625.498046875000000,45775025.710000000894070,Pg
143,1,143,1,143,146,Íÿãàíü,ÀÎ «ÐÍ-Íÿãàíüíåôòåãàç»,Òàëèíñêîå ìåñòîðîæäåíèå,oil,,íåôòÿíîå,61.490921000000000,66.272964999999999,/oil-gas-field/talinskoe,Talinskoe,2285549626238.638183593750000,7942933.641999999992549,1174,West Siberian Basin,p,1,1991093993625.498046875000000,45775025.710000000894070,Pg
144,1,144,1,144,147,Õàíòû-Ìàíñèéñê,ÏÀÎ ""ÍÊ ""ÐÎÑÍÅÔÒÜ"",Ýðãèíñêîå ìåñòîðîæäåíèå,oil,,íåôòÿíîå,60.741712999999997,69.216614000000007,/oil-gas-field/erginskoye,Erginskoye,2285549626238.638183593750000,7942933.641999999992549,1174,West Siberian Basin,p,1,200371084.074999988079071,86995.312000000005355,H2O
145,1,145,1,145,148,Êóþìáà,ÎÎÎ «Ñëàâíåôòü-Êðàñíîÿðñêíåôòåãàç»,Êóþìáèíñêîå ìåñòîðîæäåíèå,oil,,íåôòÿíîå,60.897720999999997,97.230377000000004,/oil-gas-field/kuyumbinskoye,Kuyumbinskoye,202839517987.707000732421875,2408122.007999999914318,1207,Baykit Arch,b,1,40653495362.969001770019531,4997106.754999999888241,Cm
146,1,146,1,146,149,Ñàáåòòà,ÎÎÎ ""Àðêòèê ÑÏÃ 2"",Ñàëìàíîâñêîå (Óòðåííåå) ìåñòîðîæäåíèå,gas-condensate,,ãàçîêîíäåíñàòíîå,71.057569000000001,73.975066999999996,/oil-gas-field/salmanovskoe-utrennee,Salmanovskoe Utrennee,2285549626238.638183593750000,7942933.641999999992549,1174,West Siberian Basin,p,1,1052942730417.592041015625000,23622380.964999999850988,K
147,1,147,1,147,150,Ñàëûì,«Ñàëûì Ïåòðîëåóì Äåâåëîïìåíò Í.Â.»,Çàïàäíî-Ñàëûìñêîå ìåñòîðîæäåíèå,oil,,íåôòÿíîå,60.288173000000000,70.897521999999995,/oil-gas-field/west-salymskoe,West Salymskoe,2285549626238.638183593750000,7942933.641999999992549,1174,West Siberian Basin,p,1,1991093993625.498046875000000,45775025.710000000894070,Pg
148,1,148,1,148,151,Ñàëåõàðä,ÎÎÎ ""Àðêòèê ÑÏÃ 1"",Ãûäàíñêîå ìåñòîðîæäåíèå,gas-condensate,,ãàçîêîíäåíñàòíîå,70.322207000000006,76.184691999999998,/oil-gas-field/gydanskoye,Gydanskoye,2285549626238.638183593750000,7942933.641999999992549,1174,West Siberian Basin,p,1,1052942730417.592041015625000,23622380.964999999850988,K
149,1,149,1,149,152,Êèðåíñê,ÎÎÎ «ÈÍÊ» (Èðêóòñêàÿ íåôòÿíàÿ êîìïàíèÿ),ßðàêòèíñêîå ìåñòîðîæäåíèå,oil-gas-condensate,,íåôòåãàçîêîíäåíñàòíîå,57.999001999999997,106.730461000000005,/oil-gas-field/yaraktinskoe,Yaraktinskoe,360115965584.392028808593750,3295676.089999999850988,1210,Nepa-Botuoba Arch,p,1,130081261281.199005126953125,6486465.122999999672174,O
150,1,150,1,150,153,Àòûðàó,North Caspian Operating Company (NCOC) / Íîðò Êàñïèàí Îïåðåéòèíã Êîìïàíè Í.Â. (ÍÊÎÊ),Ìåñòîðîæäåíèå Êàøàãàí,oil-gas,,íåôòåãàçîâîå,46.200744999999998,51.696854000000002,/oil-gas-field/kashagan,Kashagan,546688741566.757995605468750,2862387.569999999832362,1016,North Caspian Basin,p,1,409082547603.734008789062500,6944516.891999999992549,SEA
151,1,151,1,151,154,Äóäèíêà,ÏÀÎ ""ÍÊ ""ÐÎÑÍÅÔÒÜ"",Ñóçóíñêîå ìåñòîðîæäåíèå,oil-gas,,íåôòåãàçîâîå,68.449490999999995,83.652991999999998,/oil-gas-field/suzunskoe,Suzunskoe,2285549626238.638183593750000,7942933.641999999992549,1174,West Siberian Basin,p,1,1052942730417.592041015625000,23622380.964999999850988,K
152,1,152,1,152,155,Íîÿáðüñê,ÏÀÎ ""ÍÊ ""ÐÎÑÍÅÔÒÜ"",Ñåâåðî-Òàðàñîâñêîå ìåñòîðîæäåíèå,oil-gas,,íåôòåãàçîâîå,64.548219000000003,77.734795000000005,/oil-gas-field/severo-tarasovskoe,Severo Tarasovskoe,2285549626238.638183593750000,7942933.641999999992549,1174,West Siberian Basin,p,1,1991093993625.498046875000000,45775025.710000000894070,Pg
153,1,153,1,153,156,Íîÿáðüñê,ÏÀÎ ""ÍÊ ""ÐÎÑÍÅÔÒÜ"",Òàðàñîâñêîå ìåñòîðîæäåíèå,oil-gas,,íåôòåãàçîâîå,64.403762000000000,77.779769999999999,/oil-gas-field/tarasovskoe,Tarasovskoe,2285549626238.638183593750000,7942933.641999999992549,1174,West Siberian Basin,p,1,1991093993625.498046875000000,45775025.710000000894070,Pg
154,1,154,1,154,157,Þæíî-Ñàõàëèíñê,ÏÀÎ ""ÍÊ ""ÐÎÑÍÅÔÒÜ"",Ìåñòîðîæäåíèå Îäîïòó-ìîðå (Ñåâåðíûé êóïîë),oil,,íåôòÿíîå,53.298611000000001,143.328056000000004,/oil-gas-field/odoptu-sea,Odoptu Sea,85860508708.671997070312500,2387620.657999999821186,1322,North Sakhalin Basin,p,1,10059528710210.796875000000000,88017714.201000005006790,SEA
155,1,155,1,155,158,Þæíî-Ñàõàëèíñê,ÏÀÎ ""ÍÊ ""ÐÎÑÍÅÔÒÜ"",Êàòàíãëè ìåñòîðîæäåíèå,oil,,íåôòÿíîå,51.700012999999998,143.229617999999988,/oil-gas-field/katangli,Katangli,85860508708.671997070312500,2387620.657999999821186,1322,North Sakhalin Basin,p,1,34754057488.655998229980469,2601912.236000000033528,N
156,1,156,1,156,159,Þæíî-Ñàõàëèíñê,ÏÀÎ ""ÍÊ ""ÐÎÑÍÅÔÒÜ"",Íàáèëü ìåñòîðîæäåíèå,oil-gas,,íåôòåãàçîâîå,51.532615000000000,143.400507000000005,/oil-gas-field/nabil,Nabil,85860508708.671997070312500,2387620.657999999821186,1322,North Sakhalin Basin,p,1,10059528710210.796875000000000,88017714.201000005006790,SEA
157,1,157,1,157,160,Þæíî-Ñàõàëèíñê,ÏÀÎ ""ÍÊ ""ÐÎÑÍÅÔÒÜ"",Âîñòî÷íîå Äàãè (Äàãè) ìåñòîðîæäåíèå,oil-gas,,íåôòåãàçîâîå,52.138334999999998,143.058815000000010,/oil-gas-field/vostochnoedagi,Vostochnoedagi,85860508708.671997070312500,2387620.657999999821186,1322,North Sakhalin Basin,p,1,34754057488.655998229980469,2601912.236000000033528,N
158,1,158,1,158,161,Íîÿáðüñê,ÎÎÎ «ÐÍ-Ïóðíåôòåãàç»,Çàïàäíî-Ïóðïåéñêîå ìåñòîðîæäåíèå,oil-gas,,íåôòåãàçîâîå,64.579184999999995,75.552807000000001,/oil-gas-field/zapadno-purpeyskoe,Zapadno Purpeyskoe,2285549626238.638183593750000,7942933.641999999992549,1174,West Siberian Basin,p,1,1991093993625.498046875000000,45775025.710000000894070,Pg
159,1,159,1,159,163,Íîÿáðüñê,ÎÎÎ «ÐÍ-Ïóðíåôòåãàç»,Óñòü-Õàðàìïóðñêîå ìåñòîðîæäåíèå,oil,,íåôòÿíîå,64.283653000000001,78.167725000000004,/oil-gas-field/ust-kcharampurskoe,Ust Kcharampurskoe,2285549626238.638183593750000,7942933.641999999992549,1174,West Siberian Basin,p,1,1991093993625.498046875000000,45775025.710000000894070,Pg
160,1,160,1,160,164,Ñóðãóò,ÏÀÎ ""ÍÊ ""ÐÎÑÍÅÔÒÜ"",Ïðàâäèíñêîå ìåñòîðîæäåíèå,oil-gas,,íåôòåãàçîâîå,60.951777000000000,71.842346000000006,/oil-gas-field/pravdinskoe,Pravdinskoe,2285549626238.638183593750000,7942933.641999999992549,1174,West Siberian Basin,p,1,1991093993625.498046875000000,45775025.710000000894070,Pg
161,1,161,1,161,165,Òîìñê,ÎÀÎ «Òîìñêãàçïðîì»,Ñåâåðî-Îñòàíèíñêîå ìåñòîðîæäåíèå,oil,,íåôòÿíîå,57.906092999999998,79.307556000000005,/oil-gas-field/severo-ostaninskoe,Severo Ostaninskoe,2285549626238.638183593750000,7942933.641999999992549,1174,West Siberian Basin,p,1,274348615164.579986572265625,7957469.074000000022352,QT
162,1,162,1,162,166,Òîìñê,ÎÀÎ «Òîìñêãàçïðîì»,Êàçàíñêîå ìåñòîðîæäåíèå,oil-gas,,íåôòåãàçîâîå,57.195064000000002,79.320258999999993,/oil-gas-field/kazanskoe,Kazanskoe,2285549626238.638183593750000,7942933.641999999992549,1174,West Siberian Basin,p,1,1991093993625.498046875000000,45775025.710000000894070,Pg
163,1,163,1,163,167,Òîìñê,ÎÀÎ «Òîìñêãàçïðîì»,Ìûëüäæèíñêîå ìåñòîðîæäåíèå,oil-gas,,íåôòåãàçîâîå,58.991132999999998,78.449078000000000,/oil-gas-field/myldzhinskoe,Myldzhinskoe,2285549626238.638183593750000,7942933.641999999992549,1174,West Siberian Basin,p,1,1991093993625.498046875000000,45775025.710000000894070,Pg
164,1,164,1,164,169,Òîìñê,ÀÎ «Íåçàâèñèìàÿ íåôòåãàçîâàÿ êîìïàíèÿ»,Ñðåäíå-Íþðîëüñêîå ìåñòîðîæäåíèå,oil-gas,,íåôòåãàçîâîå,58.899768999999999,77.893324000000007,/oil-gas-field/sredne-nyurolskoe,Sredne Nyurolskoe,2285549626238.638183593750000,7942933.641999999992549,1174,West Siberian Basin,p,1,1991093993625.498046875000000,45775025.710000000894070,Pg
165,1,165,1,165,170,Òîìñê,ÀÎ «Íåçàâèñèìàÿ íåôòåãàçîâàÿ êîìïàíèÿ»,Êëþ÷åâñêîå ìåñòîðîæäåíèå,oil-gas,,íåôòåãàçîâîå,58.831026999999999,77.530345999999994,/oil-gas-field/klyuchevskoe,Klyuchevskoe,2285549626238.638183593750000,7942933.641999999992549,1174,West Siberian Basin,p,1,1991093993625.498046875000000,45775025.710000000894070,Pg
166,1,166,1,166,171,Òîìñê,ÀÎ «Íåçàâèñèìàÿ íåôòåãàçîâàÿ êîìïàíèÿ»,Ïóãëàëûìñêîå ìåñòîðîæäåíèå,oil-gas,,íåôòåãàçîâîå,58.871073000000003,77.741833000000000,/oil-gas-field/puglalymskoe,Puglalymskoe,2285549626238.638183593750000,7942933.641999999992549,1174,West Siberian Basin,p,1,1991093993625.498046875000000,45775025.710000000894070,Pg
167,1,167,1,167,172,Òîìñê,ÎÎÎ «Ãàçïðîìíåôòü-Âîñòîê»,Êóëãèíñêîå ìåñòîðîæäåíèå,oil-gas,,íåôòåãàçîâîå,57.276445000000002,78.701248000000007,/oil-gas-field/kulginskoe,Kulginskoe,2285549626238.638183593750000,7942933.641999999992549,1174,West Siberian Basin,p,1,274348615164.579986572265625,7957469.074000000022352,QT
168,1,168,1,168,173,Òîìñê,ÎÎÎ «Ãàçïðîìíåôòü-Âîñòîê»,Þæíî-Òàáàãàíñêîå ìåñòîðîæäåíèå,oil-gas,,íåôòåãàçîâîå,57.284517000000001,78.881364000000005,/oil-gas-field/yuzhno-tabaganskoe,Yuzhno Tabaganskoe,2285549626238.638183593750000,7942933.641999999992549,1174,West Siberian Basin,p,1,1991093993625.498046875000000,45775025.710000000894070,Pg
169,1,169,1,169,174,Òîìñê,ÎÎÎ «Ãàçïðîìíåôòü-Âîñòîê»,Ëóãèíåöêîå ìåñòîðîæäåíèå,oil-gas,,íåôòåãàçîâîå,58.165995000000002,78.892821999999995,/oil-gas-field/luginetskoe,Luginetskoe,2285549626238.638183593750000,7942933.641999999992549,1174,West Siberian Basin,p,1,1991093993625.498046875000000,45775025.710000000894070,Pg
170,1,170,1,170,175,Óñòü-Êóò,ÎÎÎ «ÈÍÊ» (Èðêóòñêàÿ íåôòÿíàÿ êîìïàíèÿ),Äàíèëîâñêîå ìåñòîðîæäåíèå,oil-gas,,íåôòåãàçîâîå,59.441583999999999,108.029251000000002,/oil-gas-field/danilovskoe,Danilovskoe,360115965584.392028808593750,3295676.089999999850988,1210,Nepa-Botuoba Arch,p,1,173720350176.319000244140625,12617611.766000000759959,Cm
171,1,171,1,171,176,Õàíòû-Ìàíñèéñê,ÎÀÎ ""Ñóðãóòíåôòåãàç"",Èìåíè Í. Ê. Áàéáàêîâà ìåñòîðîæäåíèå,oil,,íåôòÿíîå,61.923684999999999,67.682991000000001,/oil-gas-field/baibakova,Baibakova,2285549626238.638183593750000,7942933.641999999992549,1174,West Siberian Basin,p,1,1991093993625.498046875000000,45775025.710000000894070,Pg
172,1,172,1,172,177,Ñóðãóò,ÏÀÎ ""ÍÊ ""ÐÎÑÍÅÔÒÜ"",Âîñòî÷íî-Ñóðãóòñêîå ìåñòîðîæäåíèå,oil,,íåôòÿíîå,61.016306999999998,73.406525000000002,/oil-gas-field/vostochno-surgutskoe,Vostochno Surgutskoe,2285549626238.638183593750000,7942933.641999999992549,1174,West Siberian Basin,p,1,1991093993625.498046875000000,45775025.710000000894070,Pg
173,1,173,1,173,178,Õàíòû-Ìàíñèéñê,ÎÀÎ ""Ñóðãóòíåôòåãàç"",Æóìàæàíîâñêîå ìåñòîðîæäåíèå,oil,,íåôòÿíîå,62.889586000000001,70.563125999999997,/oil-gas-field/zhumazhanovskoe,Zhumazhanovskoe,2285549626238.638183593750000,7942933.641999999992549,1174,West Siberian Basin,p,1,1991093993625.498046875000000,45775025.710000000894070,Pg
174,1,174,1,174,179,Ñóðãóò,ÎÀÎ ""Ñóðãóòíåôòåãàç"",Ñóðüåãàíñêîå ìåñòîðîæäåíèå,oil,,íåôòÿíîå,63.227209999999999,70.649642999999998,/oil-gas-field/surieganskoe,Surieganskoe,2285549626238.638183593750000,7942933.641999999992549,1174,West Siberian Basin,p,1,1991093993625.498046875000000,45775025.710000000894070,Pg
175,1,175,1,175,180,Ñóðãóò,ÎÀÎ ""Ñóðãóòíåôòåãàç"",Âàòëîðñêîå ìåñòîðîæäåíèå,oil,,íåôòÿíîå,63.190534999999997,70.897694000000001,/oil-gas-field/vatlorskoe,Vatlorskoe,2285549626238.638183593750000,7942933.641999999992549,1174,West Siberian Basin,p,1,1991093993625.498046875000000,45775025.710000000894070,Pg
176,1,176,1,176,181,Ñóðãóò,ÎÀÎ ""Ñóðãóòíåôòåãàç"",Þæíî-Âàòëîðñêîå ìåñòîðîæäåíèå,oil,,íåôòÿíîå,63.151873999999999,71.180419999999998,/oil-gas-field/yuzhno-vatlorskoe,Yuzhno Vatlorskoe,2285549626238.638183593750000,7942933.641999999992549,1174,West Siberian Basin,p,1,1991093993625.498046875000000,45775025.710000000894070,Pg
177,1,177,1,177,182,Ñóðãóò,ÎÀÎ ""Ñóðãóòíåôòåãàç"",Àé-Ïèìñêîå ìåñòîðîæäåíèå,oil,,íåôòÿíîå,62.249305000000000,71.167202000000003,/oil-gas-field/ai-pimskoe,Ai Pimskoe,2285549626238.638183593750000,7942933.641999999992549,1174,West Siberian Basin,p,1,1991093993625.498046875000000,45775025.710000000894070,Pg
178,1,178,1,178,183,Ñóðãóò,ÎÀÎ ""Ñóðãóòíåôòåãàç"",Âà÷èìñêîå ìåñòîðîæäåíèå,oil-gas,,íåôòåãàçîâîå,61.826824000000002,72.644347999999994,/oil-gas-field/vachimskoe,Vachimskoe,2285549626238.638183593750000,7942933.641999999992549,1174,West Siberian Basin,p,1,1991093993625.498046875000000,45775025.710000000894070,Pg
179,1,179,1,179,184,Íàðüÿí-Ìàð,ÎÎÎ «ËÓÊÎÉË-Êîìè»,Èìåíè Þ. Ðîññèõèíà ìåñòîðîæäåíèå,oil,,íåôòÿíîå,67.946291000000002,55.936889999999998,/oil-gas-field/rossikhina,Rossikhina,450939701379.052001953125000,3262746.402999999932945,1008,Timan-Pechora Basin,p,1,109204210740.423004150390625,3242898.160000000149012,K
180,1,180,1,180,185,Âèëþéñê,ÏÀÎ «ßêóòñêàÿ òîïëèâíî-ýíåðãåòè÷åñêàÿ êîìïàíèÿ»,Ñðåäíåâèëþéñêîå ìåñòîðîæäåíèå,gas-condensate,,ãàçîêîíäåíñàòíîå,63.930734999999999,122.678832999999997,/oil-gas-field/srednevilyuiskoe,Srednevilyuiskoe,313699940645.426025390625000,3451244.211000000126660,1214,Lena-Vilyuy Basin, ,0,1052942730417.592041015625000,23622380.964999999850988,K
181,1,181,1,181,186,Íîÿáðüñê,ÏÀÎ ""ÍÊ ""ÐÎÑÍÅÔÒÜ"",Áàðñóêîâñêîå ìåñòîðîæäåíèå,oil-gas,,íåôòåãàçîâîå,64.390409000000005,75.655974999999998,/oil-gas-field/barsukovskoe,Barsukovskoe,2285549626238.638183593750000,7942933.641999999992549,1174,West Siberian Basin,p,1,1991093993625.498046875000000,45775025.710000000894070,Pg
182,1,182,1,182,187,Ëåñîñèáèðñê,ÏÀÎ ""ÍÊ ""ÐÎÑÍÅÔÒÜ"",Þðóá÷åíî-Òîõîìñêîå ìåñòîðîæäåíèå,oil-gas-condensate,,íåôòåãàçîêîíäåíñàòíîå,60.430883999999999,96.241778999999994,/oil-gas-field/yurubcheno-tokchomskoe,Yurubcheno Tokchomskoe,202839517987.707000732421875,2408122.007999999914318,1207,Baykit Arch,b,1,40653495362.969001770019531,4997106.754999999888241,Cm
183,1,183,1,183,188,Èãàðêà,ÏÀÎ ""ÍÊ ""ÐÎÑÍÅÔÒÜ"",Òàãóëüñêîå ìåñòîðîæäåíèå,oil,,íåôòÿíîå,67.269323000000000,83.220061999999999,/oil-gas-field/tagulskoe,Tagulskoe,2285549626238.638183593750000,7942933.641999999992549,1174,West Siberian Basin,p,1,1991093993625.498046875000000,45775025.710000000894070,Pg
184,1,184,1,184,189,Òîìñê,ÀÎ ÍÊ ""ÐóññÍåôòü"",Ãóðàðèíñêîå ìåñòîðîæäåíèå,oil-gas,,íåôòåãàçîâîå,58.502887999999999,79.518355999999997,/oil-gas-field/gurarinskoe,Gurarinskoe,2285549626238.638183593750000,7942933.641999999992549,1174,West Siberian Basin,p,1,1991093993625.498046875000000,45775025.710000000894070,Pg
185,1,185,1,185,190,Òîìñê,ÀÎ ÍÊ ""ÐóññÍåôòü"",Ôåäþøêèíñêîå ìåñòîðîæäåíèå,oil,,íåôòÿíîå,57.806359000000000,76.326828000000006,/oil-gas-field/fedyushkinskoe,Fedyushkinskoe,2285549626238.638183593750000,7942933.641999999992549,1174,West Siberian Basin,p,1,274348615164.579986572265625,7957469.074000000022352,QT
186,1,186,1,186,191,Òîìñê,ÀÎ ÍÊ ""ÐóññÍåôòü"",Âåðõíåñàëàòñêîå ìåñòîðîæäåíèå,oil,,íåôòÿíîå,58.487324000000001,78.048762999999994,/oil-gas-field/verkhnesalatskoe,Verkhnesalatskoe,2285549626238.638183593750000,7942933.641999999992549,1174,West Siberian Basin,p,1,1991093993625.498046875000000,45775025.710000000894070,Pg
187,1,187,1,187,192,Íèæíåâàðòîâñê,ÀÎ ÍÊ ""ÐóññÍåôòü"",Ñòîëáîâîå ìåñòîðîæäåíèå,oil,,íåôòÿíîå,59.287280000000003,76.297302000000002,/oil-gas-field/stolbovoe,Stolbovoe,2285549626238.638183593750000,7942933.641999999992549,1174,West Siberian Basin,p,1,1991093993625.498046875000000,45775025.710000000894070,Pg
188,1,188,1,188,193,Íèæíåâàðòîâñê,Imperial Energy,Ñíåæíîå ìåñòîðîæäåíèå,oil-gas,,íåôòåãàçîâîå,58.924854000000003,79.694823999999997,/oil-gas-field/snezhnoe,Snezhnoe,2285549626238.638183593750000,7942933.641999999992549,1174,West Siberian Basin,p,1,1991093993625.498046875000000,45775025.710000000894070,Pg
189,1,189,1,189,194,Ñóðãóò,Imperial Energy,Ìàéñêîå ìåñòîðîæäåíèå,oil,,íåôòÿíîå,60.390791000000000,72.907505000000000,/oil-gas-field/mayskoe,Mayskoe,2285549626238.638183593750000,7942933.641999999992549,1174,West Siberian Basin,p,1,1991093993625.498046875000000,45775025.710000000894070,Pg
190,1,190,1,190,195,Íèæíåâàðòîâñê,Imperial Energy,Äâîéíîå ìåñòîðîæäåíèå,oil,,íåôòÿíîå,58.826183999999998,79.453639999999993,/oil-gas-field/dvoynoe,Dvoynoe,2285549626238.638183593750000,7942933.641999999992549,1174,West Siberian Basin,p,1,1991093993625.498046875000000,45775025.710000000894070,Pg
191,1,191,1,191,196,Íîÿáðüñê,ÏÀÎ ""ÍÊ ""ÐÎÑÍÅÔÒÜ"",Ôåñòèâàëüíîå ìåñòîðîæäåíèå,oil,,íåôòÿíîå,63.714455000000001,79.499816999999993,/oil-gas-field/festivalnoe,Festivalnoe,2285549626238.638183593750000,7942933.641999999992549,1174,West Siberian Basin,p,1,1991093993625.498046875000000,45775025.710000000894070,Pg
192,1,192,1,192,197,Íèæíåâàðòîâñê,Ñîáñòâåííèê/Èíâåñòîð,Êîíòîðîâè÷ñêîå (Îáñêîå) ìåñòîðîæäåíèå,oil,,íåôòÿíîå,60.297021000000001,78.115539999999996,/oil-gas-field/kontorovichskoe,Kontorovichskoe,2285549626238.638183593750000,7942933.641999999992549,1174,West Siberian Basin,p,1,1991093993625.498046875000000,45775025.710000000894070,Pg
193,1,193,1,193,198,Òîìñê,ÀÎ «Òîìñêíåôòü» ÂÍÊ,Òàãàéñêîå ìåñòîðîæäåíèå,oil,,íåôòÿíîå,57.971701000000003,76.331635000000006,/oil-gas-field/tagaiskoe,Tagaiskoe,2285549626238.638183593750000,7942933.641999999992549,1174,West Siberian Basin,p,1,1991093993625.498046875000000,45775025.710000000894070,Pg
194,1,194,1,194,199,Òîìñê,ÀÎ «Òîìñêíåôòü» ÂÍÊ,Êàðàéñêîå ìåñòîðîæäåíèå,oil,,íåôòÿíîå,57.699010999999999,75.997924999999995,/oil-gas-field/karaiskoe,Karaiskoe,2285549626238.638183593750000,7942933.641999999992549,1174,West Siberian Basin,p,1,274348615164.579986572265625,7957469.074000000022352,QT
195,1,195,1,195,200,Òîìñê,Ñîáñòâåííèê/Èíâåñòîð,Ìàòþøêèíñêîå ìåñòîðîæäåíèå,oil,,íåôòÿíîå,59.927495999999998,76.981200999999999,/oil-gas-field/matyushkinskoe,Matyushkinskoe,2285549626238.638183593750000,7942933.641999999992549,1174,West Siberian Basin,p,1,1991093993625.498046875000000,45775025.710000000894070,Pg
196,1,196,1,196,201,Íèæíåâàðòîâñê,Ñîáñòâåííèê/Èíâåñòîð,Õâîéíîå ìåñòîðîæäåíèå,oil,,íåôòÿíîå,59.609085999999998,76.731262000000001,/oil-gas-field/khvoinoe,Khvoinoe,2285549626238.638183593750000,7942933.641999999992549,1174,West Siberian Basin,p,1,1991093993625.498046875000000,45775025.710000000894070,Pg
197,1,197,1,197,202,Íàäûì,ÏÀÎ «ÍÎÂÀÒÝÊ»,ßðóäåéñêîå ìåñòîðîæäåíèå,oil-gas-condensate,,íåôòåãàçîêîíäåíñàòíîå,66.195038999999994,70.995711999999997,/oil-gas-field/yarudeyskoye,Yarudeyskoye,2285549626238.638183593750000,7942933.641999999992549,1174,West Siberian Basin,p,1,1991093993625.498046875000000,45775025.710000000894070,Pg
198,1,198,1,198,203,Äìèòðîâãðàä,ÏÀÎ ""ËÓÊÎÉË"",Àêñåíîâñêîå ìåñòîðîæäåíèå,oil,,íåôòÿíîå,54.138055999999999,50.638333000000003,/oil-gas-field/aksenovskoye,Aksenovskoye,726370445706.697998046875000,4972426.422000000253320,1015,Volga-Ural Region,p,1,604011631899.788940429687500,20681400.471999999135733,P
199,1,199,1,199,204,Ñàìàðà,ÀÎ ""Ñàìàðàíåôòåãàç"",Ñåìåíîâñêîå ìåñòîðîæäåíèå,gas-condensate,,ãàçîêîíäåíñàòíîå,53.502138000000002,51.474122999999999,/oil-gas-field/semenovskoye,Semenovskoye,726370445706.697998046875000,4972426.422000000253320,1015,Volga-Ural Region,p,1,604011631899.788940429687500,20681400.471999999135733,P
200,1,200,1,200,205,Áîâàíåíêîâî,ÎÎÎ ""Ãàçïðîì äîáû÷à Íàäûì"",Áîâàíåíêîâñêîå ìåñòîðîæäåíèå,oil-gas-condensate,,íåôòåãàçîêîíäåíñàòíîå,70.453345999999996,68.291015999999999,/oil-gas-field/bovanenkovskoye,Bovanenkovskoye,2285549626238.638183593750000,7942933.641999999992549,1174,West Siberian Basin,p,1,79346903486.179000854492188,2485392.078000000212342,Pg
201,1,201,1,201,206,Äìèòðîâãðàä,ÏÀÎ ""ËÓÊÎÉË"",Êðàñíîâñêîå ìåñòîðîæäåíèå,oil,,íåôòÿíîå,54.235813999999998,50.937123000000000,/oil-gas-field/krasnovskoe,Krasnovskoe,726370445706.697998046875000,4972426.422000000253320,1015,Volga-Ural Region,p,1,604011631899.788940429687500,20681400.471999999135733,P
202,1,202,1,202,207,Äìèòðîâãðàä,ÏÀÎ ""ËÓÊÎÉË"",Ïîëòàâñêîå ìåñòîðîæäåíèå,oil,,íåôòÿíîå,54.134166999999998,50.786667000000001,/oil-gas-field/poltavskoe,Poltavskoe,726370445706.697998046875000,4972426.422000000253320,1015,Volga-Ural Region,p,1,604011631899.788940429687500,20681400.471999999135733,P
203,1,203,1,203,208,Ñóðãóò,ÎÎÎ «ÐÍ-Þãàíñêíåôòåãàç»,Ìàëîáàëûêñêîå ìåñòîðîæäåíèå,oil,,íåôòÿíîå,60.515568000000002,72.291584000000000,/oil-gas-field/malobalykskoe,Malobalykskoe,2285549626238.638183593750000,7942933.641999999992549,1174,West Siberian Basin,p,1,1991093993625.498046875000000,45775025.710000000894070,Pg
204,1,204,1,204,209,Íîâûé Óðåíãîé,ÀÎ «ÐÎÑÏÀÍ ÈÍÒÅÐÍÅØÍË»,Íîâî-Óðåíãîéñêèé ëèöåíçèîííûé ó÷àñòîê,gas-condensate,,ãàçîêîíäåíñàòíîå,65.893801999999994,77.218093999999994,/oil-gas-field/novo-urengoysky-license-area,Novo Urengoysky License Area,2285549626238.638183593750000,7942933.641999999992549,1174,West Siberian Basin,p,1,1991093993625.498046875000000,45775025.710000000894070,Pg
205,1,205,1,205,210,Íåôòåþãàíñê,ÏÀÎ ""ÍÊ ""ÐÎÑÍÅÔÒÜ"",Îìáèíñêîå ìåñòîðîæäåíèå,oil,,íåôòÿíîå,60.956204000000000,73.016311999999999,/oil-gas-field/ombinskoye,Ombinskoye,2285549626238.638183593750000,7942933.641999999992549,1174,West Siberian Basin,p,1,1991093993625.498046875000000,45775025.710000000894070,Pg
206,1,206,1,206,211,Àñòðàõàíü,ÏÀÎ «Ãàçïðîì»,Àñòðàõàíñêîå ìåñòîðîæäåíèå,gas-condensate,,ãàçîêîíäåíñàòíîå,46.847042999999999,48.147582999999997,/oil-gas-field/astrakhanskoe,Astrakhanskoe,546688741566.757995605468750,2862387.569999999832362,1016,North Caspian Basin,p,1,626721419021.604980468750000,19300571.103999998420477,N
207,1,207,1,207,212,Íàðüÿí-Ìàð,ÎÎÎ «ÐÍ-Ñåâåðíàÿ íåôòü»,Íàóëüñêîå ìåñòîðîæäåíèå,oil,,íåôòÿíîå,68.490250000000003,58.765526000000001,/oil-gas-field/naulskoe,Naulskoe,450939701379.052001953125000,3262746.402999999932945,1008,Timan-Pechora Basin,p,1,109204210740.423004150390625,3242898.160000000149012,K
208,1,208,1,208,213,Íàðüÿí-Ìàð,ÎÎÎ «ÐÍ-Ñåâåðíàÿ íåôòü»,Ëàáàãàíñêîå ìåñòîðîæäåíèå,oil,,íåôòÿíîå,68.376355000000004,59.037008000000000,/oil-gas-field/labaganskoe,Labaganskoe,450939701379.052001953125000,3262746.402999999932945,1008,Timan-Pechora Basin,p,1,109204210740.423004150390625,3242898.160000000149012,K
209,1,209,1,209,214,Ñàëûì,ÏÀÎ ÀÍÊ «Áàøíåôòü»,Ñîðîâñêîå ìåñòîðîæäåíèå,oil,,íåôòÿíîå,59.762619999999998,71.740723000000003,/oil-gas-field/sorovskoe,Sorovskoe,2285549626238.638183593750000,7942933.641999999992549,1174,West Siberian Basin,p,1,1991093993625.498046875000000,45775025.710000000894070,Pg
210,1,210,1,210,215,Ãîðíîïðàâäèíñê,ÏÀÎ ""ÍÊ ""ÐÎÑÍÅÔÒÜ"",Êîíäèíñêîå ìåñòîðîæäåíèå,oil,,íåôòÿíîå,60.187674999999999,69.232286999999999,/oil-gas-field/kondinskoye,Kondinskoye,2285549626238.638183593750000,7942933.641999999992549,1174,West Siberian Basin,p,1,1991093993625.498046875000000,45775025.710000000894070,Pg
211,1,211,1,211,216,Ñàìàðà,ÀÎ ""Ñàìàðàíåôòåãàç"",Çàïàäíî-Êîììóíàðñêîå ìåñòîðîæäåíèå,gas-oil,,ãàçîíåôòÿíîå,53.017499999999998,50.824722000000001,/oil-gas-field/west-kommunarskoye,West Kommunarskoye,726370445706.697998046875000,4972426.422000000253320,1015,Volga-Ural Region,p,1,626721419021.604980468750000,19300571.103999998420477,N
212,1,212,1,212,217,Ïåòðîïàâëîâñê-Êàì÷àòñêèé,ÏÀÎ «Ãàçïðîì»,Êøóêñêîå ìåñòîðîæäåíèå,gas-condensate,,ãàçîêîíäåíñàòíîå,54.775832999999999,155.785556000000014,/oil-gas-field/kshukskoe,Kshukskoe,116963145551.647003173828125,2707421.668000000063330,1311,West Kamchatka Basin, ,0,102847827392.261001586914063,7701445.302000000141561,N
213,1,213,1,213,218,Ïåòðîïàâëîâñê-Êàì÷àòñêèé,ÏÀÎ «Ãàçïðîì»,Íèæå-Êâàê÷èíñêîå ìåñòîðîæäåíèå,gas-condensate,,ãàçîêîíäåíñàòíîå,54.710278000000002,155.829722000000004,/oil-gas-field/lower-kvakchinskoye,Lower Kvakchinskoye,116963145551.647003173828125,2707421.668000000063330,1311,West Kamchatka Basin, ,0,102847827392.261001586914063,7701445.302000000141561,N
214,1,214,1,214,219,Ïåëåäóé,ÏÀÎ «Ãàçïðîì»,×àÿíäèíñêîå ìåñòîðîæäåíèå,oil-gas-condensate,,íåôòåãàçîêîíäåíñàòíîå,60.212778000000000,111.586111000000002,/oil-gas-field/chayandinskoye,Chayandinskoye,360115965584.392028808593750,3295676.089999999850988,1210,Nepa-Botuoba Arch,p,1,173720350176.319000244140625,12617611.766000000759959,Cm
215,1,215,1,215,220,Óñòü-Êóò,ÏÀÎ «Ãàçïðîì»,Êîâûêòèíñêîå ìåñòîðîæäåíèå,gas-condensate,,ãàçîêîíäåíñàòíîå,55.358055999999998,106.106667000000002,/oil-gas-field/kovykta,Kovykta,190514216308.042999267578125,2251094.049999999813735,1209,Angara-Lena Terrace,b,1,130081261281.199005126953125,6486465.122999999672174,O
216,1,216,1,216,221,Òàðêî-Ñàëå,ÎÎÎ ""Ãàçïðîì äîáû÷à Íîÿáðüñê"",Çàïàäíî-Òàðêîñàëèíñêîå ìåñòîðîæäåíèå,oil-gas-condensate,,íåôòåãàçîêîíäåíñàòíîå,64.857221999999993,77.181944000000001,/oil-gas-field/west-tarkosalinskoye,West Tarkosalinskoye,2285549626238.638183593750000,7942933.641999999992549,1174,West Siberian Basin,p,1,1991093993625.498046875000000,45775025.710000000894070,Pg
217,1,217,1,217,222,Ãóáêèíñêèé,ÎÎÎ ""Ãàçïðîì äîáû÷à Íîÿáðüñê"",Êîìñîìîëüñêîå ìåñòîðîæäåíèå,oil-gas-condensate,,íåôòåãàçîêîíäåíñàòíîå,64.329722000000004,76.195849999999993,/oil-gas-field/komsomolskoye,Komsomolskoye,2285549626238.638183593750000,7942933.641999999992549,1174,West Siberian Basin,p,1,1991093993625.498046875000000,45775025.710000000894070,Pg
218,1,218,1,218,223,Íîâûé Óðåíãîé,ÎÎÎ ""Ãàçïðîì äîáû÷à Íàäûì"",ßìñîâåéñêîå ìåñòîðîæäåíèå,oil-gas-condensate,,íåôòåãàçîêîíäåíñàòíîå,65.486480999999998,75.524139000000005,/oil-gas-field/yamsoveiskoye,Yamsoveiskoye,2285549626238.638183593750000,7942933.641999999992549,1174,West Siberian Basin,p,1,1991093993625.498046875000000,45775025.710000000894070,Pg
219,0,219,0,219,224,NA,Eni,Ìåñòîðîæäåíèå Zohr,gas-condensate,,ãàçîêîíäåíñàòíîå,33.001753999999998,32.494812000000003,/oil-gas-field/zohr,Zohr,,,,,,,,,
220,1,220,1,220,225,Íîâûé Óðåíãîé,ÎÎÎ ""Ãàçïðîì äîáû÷à Íàäûì"",Þáèëåéíîå ìåñòîðîæäåíèå,oil-gas-condensate,,íåôòåãàçîêîíäåíñàòíîå,65.980452999999997,75.742148999999998,/oil-gas-field/jubileynoe,Jubileynoe,2285549626238.638183593750000,7942933.641999999992549,1174,West Siberian Basin,p,1,1991093993625.498046875000000,45775025.710000000894070,Pg
221,1,221,1,221,226,Óðåíãîé,ÎÎÎ ""Ãàçïðîì äîáû÷à ßìáóðã"",Çàïîëÿðíîå ìåñòîðîæäåíèå,oil-gas-condensate,,íåôòåãàçîêîíäåíñàòíîå,66.805165000000002,79.601439999999997,/oil-gas-field/zapolyarnoye,Zapolyarnoye,2285549626238.638183593750000,7942933.641999999992549,1174,West Siberian Basin,p,1,1991093993625.498046875000000,45775025.710000000894070,Pg
222,1,222,1,222,227,Ãóáêèíñêèé,ÇÀÎ «Ïóðãàç»,Ãóáêèíñêîå ìåñòîðîæäåíèå,oil-gas-condensate,,íåôòåãàçîêîíäåíñàòíîå,64.574100000000001,76.672211000000004,/oil-gas-field/gubkinskoe,Gubkinskoe,2285549626238.638183593750000,7942933.641999999992549,1174,West Siberian Basin,p,1,1991093993625.498046875000000,45775025.710000000894070,Pg
223,1,223,1,223,228,Íèæíåâàðòîâñê,ÎÀÎ ""ÍÃÊ ""Ñëàâíåôòü"",Óçóíñêîå ìåñòîðîæäåíèå,oil,,íåôòÿíîå,61.511561000000000,77.359543000000002,/oil-gas-field/uzunskoe,Uzunskoe,2285549626238.638183593750000,7942933.641999999992549,1174,West Siberian Basin,p,1,1991093993625.498046875000000,45775025.710000000894070,Pg
224,1,224,1,224,229,Þæíî-Ñàõàëèíñê,Ýêñîí Íåôòåãàç Ëèìèòåä,Ìåñòîðîæäåíèå Îäîïòó,oil,,íåôòÿíîå,53.358055999999998,143.179443999999990,/oil-gas-field/odoptu,Odoptu,85860508708.671997070312500,2387620.657999999821186,1322,North Sakhalin Basin,p,1,34754057488.655998229980469,2601912.236000000033528,N
225,1,225,1,225,230,Þæíî-Ñàõàëèíñê,Ýêñîí Íåôòåãàç Ëèìèòåä,Ìåñòîðîæäåíèå Àðêóòóí-Äàãè,oil-gas-condensate,,íåôòåãàçîêîíäåíñàòíîå,52.478332999999999,143.719444000000010,/oil-gas-field/arkutun-dagi,Arkutun Dagi,85860508708.671997070312500,2387620.657999999821186,1322,North Sakhalin Basin,p,1,10059528710210.796875000000000,88017714.201000005006790,SEA
226,1,226,1,226,231,Åêàòåðèíáóðã,ÎÎÎ ""Ãàçïðîì äîáû÷à Íîÿáðüñê"",Áóõàðîâñêîå ìåñòîðîæäåíèå,gas-condensate,,ãàçîêîíäåíñàòíîå,56.831944000000000,58.876389000000003,/oil-gas-field/bukharovskoe,Bukharovskoe,726370445706.697998046875000,4972426.422000000253320,1015,Volga-Ural Region,p,1,604011631899.788940429687500,20681400.471999999135733,P
227,1,227,1,227,232,Íîâûé Óðåíãîé,ÇÀÎ «ßìàëãàçèíâåñò»,Óðåíãîéñêîå ìåñòîðîæäåíèå ßìàëãàçèíâåñò,oil-gas-condensate,,íåôòåãàçîêîíäåíñàòíîå,66.099380999999994,76.907730000000001,/oil-gas-field/urengoyskoe-yamalgazinvest,Urengoyskoe Yamalgazinvest,2285549626238.638183593750000,7942933.641999999992549,1174,West Siberian Basin,p,1,1991093993625.498046875000000,45775025.710000000894070,Pg
228,1,228,1,228,233,Íîâûé Óðåíãîé,ÀÎ «ÐÎÑÏÀÍ ÈÍÒÅÐÍÅØÍË»,Âîñòî÷íî-Óðåíãîéñêèé ëèöåíçèîííûé ó÷àñòîê,oil-gas-condensate,,íåôòåãàçîêîíäåíñàòíîå,66.341363000000001,77.842254999999994,/oil-gas-field/east-urengoy-license-area,East Urengoy License Area,2285549626238.638183593750000,7942933.641999999992549,1174,West Siberian Basin,p,1,1991093993625.498046875000000,45775025.710000000894070,Pg
229,1,229,1,229,234,Õàíòû-Ìàíñèéñê,ÏÀÎ ""ÍÊ ""ÐÎÑÍÅÔÒÜ"",×àïðîâñêîå ìåñòîðîæäåíèå,oil,,íåôòÿíîå,60.225555999999997,69.753056000000001,/oil-gas-field/chaprovskoye,Chaprovskoye,2285549626238.638183593750000,7942933.641999999992549,1174,West Siberian Basin,p,1,1991093993625.498046875000000,45775025.710000000894070,Pg
230,1,230,1,230,235,Ñàëûì,ÎÎÎ «ÐÍ «Óâàòíåôòåãàç»,Òÿìêèíñêîå ìåñòîðîæäåíèå,oil,,íåôòÿíîå,59.064444000000002,71.861389000000003,/oil-gas-field/tyamkinskoe,Tyamkinskoe,2285549626238.638183593750000,7942933.641999999992549,1174,West Siberian Basin,p,1,1991093993625.498046875000000,45775025.710000000894070,Pg
231,1,231,1,231,236,Áóçóëóê,ÀÎ «Îðåíáóðãíåôòü»,Áàêëàíîâñêîå ìåòîðîæäåíèå,oil,,íåôòÿíîå,52.673056000000003,53.027222000000002,/oil-gas-field/baklanovskoe,Baklanovskoe,726370445706.697998046875000,4972426.422000000253320,1015,Volga-Ural Region,p,1,604011631899.788940429687500,20681400.471999999135733,P
232,1,232,1,232,237,Õàíòû-Ìàíñèéñê,ÎÀÎ ""Ñóðãóòíåôòåãàç"",Þæíî-Ëÿìèíñêîå ìåñòîðîæäåíèå,oil,,íåôòÿíîå,61.869444000000001,69.833888999999999,/oil-gas-field/yuzhno-lyaminskoe,Yuzhno Lyaminskoe,2285549626238.638183593750000,7942933.641999999992549,1174,West Siberian Basin,p,1,1991093993625.498046875000000,45775025.710000000894070,Pg
233,1,233,1,233,239,Íîÿáðüñê,ÎÎÎ «ËÓÊÎÉË-Çàïàäíàÿ Ñèáèðü»,Âîñòî÷íî-Ïåðåâàëüíîå ìåñòîðîæäåíèå,gas-oil,,ãàçîíåôòÿíîå,63.244166999999997,72.862222000000003,/oil-gas-field/vostochno-perevalnoe,Vostochno Perevalnoe,2285549626238.638183593750000,7942933.641999999992549,1174,West Siberian Basin,p,1,1991093993625.498046875000000,45775025.710000000894070,Pg
234,1,234,1,234,240,Áóçóëóê,ÀÎ «ÐÈÒÝÊ»,Çàïàäíî-Áèìñêîå ìåñòîðîæäåíèå,oil,,íåôòÿíîå,56.231943999999999,53.501944000000002,/oil-gas-field/zapadno-bimskoe,Zapadno Bimskoe,726370445706.697998046875000,4972426.422000000253320,1015,Volga-Ural Region,p,1,604011631899.788940429687500,20681400.471999999135733,P
235,1,235,1,235,241,Îðåíáóðã,Ñîáñòâåííèê/Èíâåñòîð,Ìàéîðñêîå ìåñòîðîæäåíèå,oil,,íåôòÿíîå,52.013610999999997,55.199444000000000,/oil-gas-field/mayorskoe,Mayorskoe,726370445706.697998046875000,4972426.422000000253320,1015,Volga-Ural Region,p,1,604011631899.788940429687500,20681400.471999999135733,P
236,1,236,1,236,242,Íàäûì,ÏÀÎ «Ãàçïðîì»,Ìåñòîðîæäåíèå Êàìåííîìûññêîå-ìîðå,gas,,ãàçîâîå,68.287778000000003,73.683888999999994,/oil-gas-field/kamennomisskoe-more,Kamennomisskoe More,2285549626238.638183593750000,7942933.641999999992549,1174,West Siberian Basin,p,1,10059528710210.796875000000000,88017714.201000005006790,SEA
237,1,237,1,237,243,Óñèíñê,ÎÎÎ ""ÑÊ ""ÐÓÑÂÜÅÒÏÅÒÐÎ"",Ñåâåðî-Õîñåäàþñêîå ìåñòîðîæäåíèå,oil,,íåôòÿíîå,67.864999999999995,58.874721999999998,/oil-gas-field/severo-hosedayskoe,Severo Hosedayskoe,450939701379.052001953125000,3262746.402999999932945,1008,Timan-Pechora Basin,p,1,109204210740.423004150390625,3242898.160000000149012,K
238,1,238,1,238,244,Àñòðàõàíü,ÎÎÎ ""Êàñïèéñêàÿ íåôòÿíàÿ êîìïàíèÿ"",Çàïàäíî-ðàêóøå÷íîå ìåñòîðîæäåíèå,oil,,íåôòÿíîå,45.215833000000003,48.111666999999997,/oil-gas-field/zapadno-rakushechnoe,Zapadno Rakushechnoe,424289671751.504028320312500,4260165.265999999828637,1109,Middle Caspian Basin,p,1,409082547603.734008789062500,6944516.891999999992549,SEA
239,1,239,1,239,245,Àñòðàõàíü,ÏÀÎ ""ËÓÊÎÉË"",Ìåñòîðîæäåíèå èì. Þ.Ñ. Êóâûêèíà,oil-gas-condensate,,íåôòåãàçîêîíäåíñàòíîå,44.417777999999998,48.707500000000003,/oil-gas-field/kuvikina,Kuvikina,424289671751.504028320312500,4260165.265999999828637,1109,Middle Caspian Basin,p,1,409082547603.734008789062500,6944516.891999999992549,SEA
240,1,240,1,240,246,Àñòðàõàíü,Ñîáñòâåííèê/Èíâåñòîð,Öåíòðàëüíîå ìåñòîðîæäåíèå,oil-gas-condensate,,íåôòåãàçîêîíäåíñàòíîå,42.721666999999997,49.639443999999997,/oil-gas-field/centralnoe,Centralnoe,424289671751.504028320312500,4260165.265999999828637,1109,Middle Caspian Basin,p,1,409082547603.734008789062500,6944516.891999999992549,SEA
241,1,241,1,241,247,Àñòðàõàíü,ÏÀÎ ""ËÓÊÎÉË"",Ìåñòîðîæäåíèå 170 êì,oil-gas-condensate,,íåôòåãàçîêîíäåíñàòíîå,44.125833000000000,49.002499999999998,/oil-gas-field/170-km,170 Km,424289671751.504028320312500,4260165.265999999828637,1109,Middle Caspian Basin,p,1,409082547603.734008789062500,6944516.891999999992549,SEA
242,1,242,1,242,248,Íîÿáðüñê,ÀÎ «Ãàçïðîìíåôòü-Íîÿáðüñêíåôòåãàç»,Îòäåëüíîå ìåñòîðîæäåíèå,oil,,íåôòÿíîå,62.979722000000002,74.834444000000005,/oil-gas-field/otdelnoe,Otdelnoe,2285549626238.638183593750000,7942933.641999999992549,1174,West Siberian Basin,p,1,1991093993625.498046875000000,45775025.710000000894070,Pg
243,1,243,1,243,249,NA,Ñîáñòâåííèê/Èíâåñòîð,Ìåñòîðîæäåíèå Óðãà,gas,,ãàçîâîå,43.906056000000000,58.568114999999999,/oil-gas-field/urga,Urga,170962528797.709014892578125,2082657.675999999977648,1150,North Ustyurt Basin,p,1,68314262650.674003601074219,3113838.902999999932945,H2O
244,1,244,1,244,250,Òîëüÿòòè,ÀÎ «ÐÈÒÝÊ»,Êàçàêîâñêîå ìåñòîðîæäåíèå,oil,,íåôòÿíîå,54.066667000000002,50.366667000000000,/oil-gas-field/kazakovskoe,Kazakovskoe,726370445706.697998046875000,4972426.422000000253320,1015,Volga-Ural Region,p,1,604011631899.788940429687500,20681400.471999999135733,P
245,1,245,1,245,251,Íîâûé Óðåíãîé,ÎÎÎ ""Ãàçïðîì äîáû÷à Íàäûì"",Ìåäâåæüå ìåñòîðîæäåíèå,oil-gas-condensate,,íåôòåãàçîêîíäåíñàòíîå,66.273332999999994,74.221665999999999,/oil-gas-field/medvezhye,Medvezhye,2285549626238.638183593750000,7942933.641999999992549,1174,West Siberian Basin,p,1,1991093993625.498046875000000,45775025.710000000894070,Pg
246,1,246,1,246,252,ïãò Íîãëèêè,ÏÀÎ «Ãàçïðîì»,Êèðèíñêîå ìåñòîðîæäåíèå,gas-condensate,,ãàçîêîíäåíñàòíîå,51.498888000000001,143.838887999999997,/oil-gas-field/kirinskoye,Kirinskoye,85860508708.671997070312500,2387620.657999999821186,1322,North Sakhalin Basin,p,1,10059528710210.796875000000000,88017714.201000005006790,SEA
247,1,247,1,247,253,Óñèíñê,ÎÎÎ «ËÓÊÎÉË-Êîìè»,Áàÿíäûñêîå ìåñòîðîæäåíèå,oil,,íåôòÿíîå,66.459444000000005,56.432777000000002,/oil-gas-field/bayandskoe,Bayandskoe,450939701379.052001953125000,3262746.402999999932945,1008,Timan-Pechora Basin,p,1,109204210740.423004150390625,3242898.160000000149012,K
248,1,248,1,248,254,Íàðüÿí-Ìàð,ÎÎÎ «ËÓÊÎÉË-Êîìè»,Âîñòî÷íî-Ñàðóòàþñêîå ìåñòîðîæäåíèå,oil,,íåôòÿíîå,67.775277000000003,55.991943999999997,/oil-gas-field/vostochno-sarutayuskoye,Vostochno Sarutayuskoye,450939701379.052001953125000,3262746.402999999932945,1008,Timan-Pechora Basin,p,1,109204210740.423004150390625,3242898.160000000149012,K
249,1,249,1,249,255,Ñàìàðà,ÏÀÎ «Òàòíåôòü»,Èðãèçñêîå ìåñòîðîæäåíèå,oil,,íåôòÿíîå,52.283337000000003,50.864477999999998,/oil-gas-field/irgizskoe,Irgizskoe,726370445706.697998046875000,4972426.422000000253320,1015,Volga-Ural Region,p,1,626721419021.604980468750000,19300571.103999998420477,N
250,1,250,1,250,256,ßìáóðã,ÎÎÎ ""Ãàçïðîì äîáû÷à ßìáóðã"",ßìáóðãñêîå ìåñòîðîæäåíèå,oil-gas-condensate,,íåôòåãàçîêîíäåíñàòíîå,67.978302999999997,75.880679999999998,/oil-gas-field/yamburgskoe,Yamburgskoe,2285549626238.638183593750000,7942933.641999999992549,1174,West Siberian Basin,p,1,1991093993625.498046875000000,45775025.710000000894070,Pg
251,1,251,1,251,257,Íîâûé Óðåíãîé,ÏÀÎ ""ÍÊ ""ÐÎÑÍÅÔÒÜ"",Ïûðåéíîå ìåñòîðîæäåíèå,gas-condensate,,ãàçîêîíäåíñàòíîå,65.585645999999997,77.546456000000006,/oil-gas-field/pyrejnoe,Pyrejnoe,2285549626238.638183593750000,7942933.641999999992549,1174,West Siberian Basin,p,1,1991093993625.498046875000000,45775025.710000000894070,Pg
252,1,252,1,252,258,Íîâûé Óðåíãîé,ÏÀÎ «Ãàçïðîì»,Ïåñöîâîå ìåñòîðîæäåíèå,oil-gas-condensate,,íåôòåãàçîêîíäåíñàòíîå,65.923055000000005,75.595556000000002,/oil-gas-field/pestsovoye,Pestsovoye,2285549626238.638183593750000,7942933.641999999992549,1174,West Siberian Basin,p,1,1991093993625.498046875000000,45775025.710000000894070,Pg
253,1,253,1,253,259,Âîðêóòà,ÏÀÎ ""ÍÊ ""ÐÎÑÍÅÔÒÜ"",Õàñûðåéñêîå ìåñòîðîæäåíèå,oil,,íåôòÿíîå,67.766666999999998,60.543664999999997,/oil-gas-field/khasyrejskoe,Khasyrejskoe,450939701379.052001953125000,3262746.402999999932945,1008,Timan-Pechora Basin,p,1,109204210740.423004150390625,3242898.160000000149012,K
254,1,254,1,254,260,Âîðêóòà,ÏÀÎ ""ÍÊ ""ÐÎÑÍÅÔÒÜ"",×åðïàþñêîå ìåñòîðîæäåíèå,oil,,íåôòÿíîå,67.556545999999997,60.545355000000001,/oil-gas-field/cherpayuskoye,Cherpayuskoye,450939701379.052001953125000,3262746.402999999932945,1008,Timan-Pechora Basin,p,1,109204210740.423004150390625,3242898.160000000149012,K
255,1,255,1,255,261,Íîâûé Óðåíãîé,ÎÎÎ «ÐÍ-Ïóðíåôòåãàç»,Êûíñêîå ìåñòîðîæäåíèå,gas-condensate,,ãàçîêîíäåíñàòíîå,65.153464000000000,80.594363999999999,/oil-gas-field/kynskoye,Kynskoye,2285549626238.638183593750000,7942933.641999999992549,1174,West Siberian Basin,p,1,1991093993625.498046875000000,45775025.710000000894070,Pg
256,1,256,1,256,262,Íàðüÿí-Ìàð,ÎÎÎ «ËÓÊÎÉË-Êîìè»,Òîðàâåéñêîå ìåñòîðîæäåíèå,oil,,íåôòÿíîå,68.686943999999997,58.353332999999999,/oil-gas-field/toraveyskoye,Toraveyskoye,450939701379.052001953125000,3262746.402999999932945,1008,Timan-Pechora Basin,p,1,109204210740.423004150390625,3242898.160000000149012,K
257,1,257,1,257,263,Ãóáêèíñêèé,ÎÎÎ «ÐÍ-Ïóðíåôòåãàç»,Êîìñîìîëüñêîå ìåñòîðîæäåíèå,oil-gas-condensate,,íåôòåãàçîêîíäåíñàòíîå,64.254345000000001,76.126363999999995,/oil-gas-field/komsomolskoye-rn,Komsomolskoye Rn,2285549626238.638183593750000,7942933.641999999992549,1174,West Siberian Basin,p,1,1991093993625.498046875000000,45775025.710000000894070,Pg
258,1,258,1,258,265,Íàðüÿí-Ìàð,ÎÎÎ «ËÓÊÎÉË-Êîìè»,Þæíî-Øàïêèíñêîå ìåñòîðîæäåíèå,oil-gas-condensate,,íåôòåãàçîêîíäåíñàòíîå,67.383332999999993,54.503252000000003,/oil-gas-field/yuzhno-shapkinskoye,Yuzhno Shapkinskoye,450939701379.052001953125000,3262746.402999999932945,1008,Timan-Pechora Basin,p,1,109204210740.423004150390625,3242898.160000000149012,K
259,1,259,1,259,266,Íàðüÿí-Ìàð,ÏÀÎ ""ËÓÊÎÉË"",Òýäèíñêîå ìåñòîðîæäåíèå,oil,,íåôòÿíîå,67.957656000000000,57.783332999999999,/oil-gas-field/tedinskoye,Tedinskoye,450939701379.052001953125000,3262746.402999999932945,1008,Timan-Pechora Basin,p,1,109204210740.423004150390625,3242898.160000000149012,K
260,1,260,1,260,267,Óñèíñê,ÎÎÎ «ËÓÊÎÉË-Êîìè»,Âîçåéñêîå ìåñòîðîæäåíèå,oil-gas-condensate,,íåôòåãàçîêîíäåíñàòíîå,66.933333000000005,56.616667000000000,/oil-gas-field/vozeyskoye,Vozeyskoye,450939701379.052001953125000,3262746.402999999932945,1008,Timan-Pechora Basin,p,1,109204210740.423004150390625,3242898.160000000149012,K
261,1,261,1,261,268,Ñàëåõàðä,ÎÎÎ «Ãàçïðîìíåôòü-Îðåíáóðã»,Ñðåäíå-Õóëûìñêîå ìåñòîðîæäåíèå,oil,,íåôòÿíîå,64.533332999999999,71.297810999999996,/oil-gas-field/sredne-khulymskoye,Sredne Khulymskoye,2285549626238.638183593750000,7942933.641999999992549,1174,West Siberian Basin,p,1,1991093993625.498046875000000,45775025.710000000894070,Pg
262,1,262,1,262,269,Òîáîëüñê,ÏÀÎ ""ÍÊ ""ÐÎÑÍÅÔÒÜ"",Êàëü÷èíñêîå ìåñòîðîæäåíèå,oil,,íåôòÿíîå,59.106395999999997,69.969237000000007,/oil-gas-field/kalchinskiy,Kalchinskiy,2285549626238.638183593750000,7942933.641999999992549,1174,West Siberian Basin,p,1,1991093993625.498046875000000,45775025.710000000894070,Pg
263,1,263,1,263,270,Íîâûé Óðåíãîé,ÎÎÎ «Ãàçïðîìíåôòü-Îðåíáóðã»,Ñàíäèáèíñêîå ìåñòîðîæäåíèå,oil,,íåôòÿíîå,66.720277999999993,73.204722000000004,/oil-gas-field/sandibinskoye,Sandibinskoye,2285549626238.638183593750000,7942933.641999999992549,1174,West Siberian Basin,p,1,1991093993625.498046875000000,45775025.710000000894070,Pg
264,1,264,1,264,271,Ñëàâÿíñê-íà-Êóáàíè,ÏÀÎ «Ãàçïðîì»,Ïåñ÷àíîå ìåñòîðîæäåíèå,oil-gas-condensate,,íåôòåãàçîêîíäåíñàòíîå,45.453611000000002,37.738056000000000,/oil-gas-field/peschanoye,Peschanoye,162966952816.980010986328125,1900141.053000000072643,1108,Azov-Kuban Basin,p,1,349113675003.143981933593750,5607677.576000000350177,SEA
265,1,265,1,265,272,Õàíòû-Ìàíñèéñê,ÎÎÎ «Ãàçïðîìíåôòü-Îðåíáóðã»,Êèñëîðñêîå ìåñòîðîæäåíèå,oil,,íåôòÿíîå,63.583336000000003,66.397811000000004,/oil-gas-field/kislorskoye,Kislorskoye,2285549626238.638183593750000,7942933.641999999992549,1174,West Siberian Basin,p,1,1991093993625.498046875000000,45775025.710000000894070,Pg
266,1,266,1,266,273,Õàíòû-Ìàíñèéñê,ÏÀÎ ""ËÓÊÎÉË"",Êðàñíîëåíèíñêîå ìåñòîðîæäåíèå,oil-gas-condensate,,íåôòåãàçîêîíäåíñàòíîå,61.653610999999998,66.671389000000005,/oil-gas-field/krasnoleninskoye,Krasnoleninskoye,2285549626238.638183593750000,7942933.641999999992549,1174,West Siberian Basin,p,1,1991093993625.498046875000000,45775025.710000000894070,Pg
267,1,267,1,267,274,Íÿãàíü,ÎÎÎ «Ãàçïðîìíåôòü-Îðåíáóðã»,Ñåðãèíñêîå ìåñòîðîæäåíèå,oil,,íåôòÿíîå,62.425797000000003,65.456800000000001,/oil-gas-field/serginskoye,Serginskoye,2285549626238.638183593750000,7942933.641999999992549,1174,West Siberian Basin,p,1,1991093993625.498046875000000,45775025.710000000894070,Pg
268,1,268,1,268,275,Íèæíåâàðòîâñê,ÏÀÎ ""ÍÊ ""ÐÎÑÍÅÔÒÜ"",Ñåâåðî-Õîõðÿêîâñêîå ìåñòîðîæäåíèå,oil,,íåôòÿíîå,62.149146999999999,79.459992000000000,/oil-gas-field/severo-khokhryakovskoye,Severo Khokhryakovskoye,2285549626238.638183593750000,7942933.641999999992549,1174,West Siberian Basin,p,1,1991093993625.498046875000000,45775025.710000000894070,Pg
269,1,269,1,269,276,Íàðüÿí-Ìàð,ÎÎÎ ""ÑÊ ""ÐÓÑÂÜÅÒÏÅÒÐÎ"",Âèñîâîå ìåñòîðîæäåíèå,oil,,íåôòÿíîå,67.034509000000000,58.595180999999997,/oil-gas-field/visovoye,Visovoye,450939701379.052001953125000,3262746.402999999932945,1008,Timan-Pechora Basin,p,1,109204210740.423004150390625,3242898.160000000149012,K
270,1,270,1,270,277,Íàðüÿí-Ìàð,ÎÎÎ ""ÑÊ ""ÐÓÑÂÜÅÒÏÅÒÐÎ"",Âåðõíåêîëâèíñêîå ìåñòîðîæäåíèå,oil,,íåôòÿíîå,67.983889000000005,58.417222000000002,/oil-gas-field/verkhnekolvinskoye,Verkhnekolvinskoye,450939701379.052001953125000,3262746.402999999932945,1008,Timan-Pechora Basin,p,1,109204210740.423004150390625,3242898.160000000149012,K
271,1,271,1,271,278,Íàðüÿí-Ìàð,ÎÎÎ ""ÑÊ ""ÐÓÑÂÜÅÒÏÅÒÐÎ"",Çàïàäíî-Õîñåäàþñêîå ìåñòîðîæäåíèå,oil,,íåôòÿíîå,67.835278000000002,58.423921999999997,/oil-gas-field/zapadno-khosedayuskoye,Zapadno Khosedayuskoye,450939701379.052001953125000,3262746.402999999932945,1008,Timan-Pechora Basin,p,1,109204210740.423004150390625,3242898.160000000149012,K
272,1,272,1,272,279,Íàðüÿí-Ìàð,ÎÎÎ ""ÑÊ ""ÐÓÑÂÜÅÒÏÅÒÐÎ"",Ñèõîðåéñêîå ìåñòîðîæäåíèå,oil,,íåôòÿíîå,67.750556000000003,58.000556000000003,/oil-gas-field/sikhoreyskiy,Sikhoreyskiy,450939701379.052001953125000,3262746.402999999932945,1008,Timan-Pechora Basin,p,1,109204210740.423004150390625,3242898.160000000149012,K
273,1,273,1,273,280,Íàðüÿí-Ìàð,ÎÎÎ ""ÑÊ ""ÐÓÑÂÜÅÒÏÅÒÐÎ"",Âîñòî÷íî-Ñèõîðåéñêîå ìåñòîðîæäåíèå,oil,,íåôòÿíîå,67.775555999999995,58.560054999999998,/oil-gas-field/vostochno-sikhoreyskoye,Vostochno Sikhoreyskoye,450939701379.052001953125000,3262746.402999999932945,1008,Timan-Pechora Basin,p,1,109204210740.423004150390625,3242898.160000000149012,K
274,1,274,1,274,281,Íàðüÿí-Ìàð,ÎÎÎ ""ÑÊ ""ÐÓÑÂÜÅÒÏÅÒÐÎ"",Ñåâåðî-Ñèõîðåéñêîå ìåñòîðîæäåíèå,oil,,íåôòÿíîå,67.882221999999999,58.065556000000001,/oil-gas-field/severo-sikhoreyskoye,Severo Sikhoreyskoye,450939701379.052001953125000,3262746.402999999932945,1008,Timan-Pechora Basin,p,1,109204210740.423004150390625,3242898.160000000149012,K
275,1,275,1,275,282,Íàðüÿí-Ìàð,ÎÎÎ ""ÑÊ ""ÐÓÑÂÜÅÒÏÅÒÐÎ"",Ñåâåðî-Îøêîòûíñêîå ìåñòîðîæäåíèå,oil,,íåôòÿíîå,67.766666999999998,57.783332999999999,/oil-gas-field/severo-oshkotynskoye,Severo Oshkotynskoye,450939701379.052001953125000,3262746.402999999932945,1008,Timan-Pechora Basin,p,1,109204210740.423004150390625,3242898.160000000149012,K
276,1,276,1,276,283,Íàðüÿí-Ìàð,ÎÎÎ ""ÑÊ ""ÐÓÑÂÜÅÒÏÅÒÐÎ"",Ñþðõàðàòèíñêîå ìåñòîðîæäåíèå,oil,,íåôòÿíîå,67.991945999999999,57.757769000000003,/oil-gas-field/syurkharatinskoye,Syurkharatinskoye,450939701379.052001953125000,3262746.402999999932945,1008,Timan-Pechora Basin,p,1,109204210740.423004150390625,3242898.160000000149012,K
277,1,277,1,277,284,Íàðüÿí-Ìàð,ÎÎÎ ""ÑÊ ""ÐÓÑÂÜÅÒÏÅÒÐÎ"",Ïþñåéñêîå ìåñòîðîæäåíèå,oil,,íåôòÿíîå,67.996388999999994,57.973039999999997,/oil-gas-field/pyuseyskoye,Pyuseyskoye,450939701379.052001953125000,3262746.402999999932945,1008,Timan-Pechora Basin,p,1,109204210740.423004150390625,3242898.160000000149012,K
278,1,278,1,278,285,Íàðüÿí-Ìàð,ÎÎÎ ""ÑÊ ""ÐÓÑÂÜÅÒÏÅÒÐÎ"",Þæíî-Ñþðõàðàòèíñêîå ìåñòîðîæäåíèå,oil,,íåôòÿíîå,67.927232000000004,57.708897000000000,/oil-gas-field/yuzhno-syurkharatinskoye,Yuzhno Syurkharatinskoye,450939701379.052001953125000,3262746.402999999932945,1008,Timan-Pechora Basin,p,1,109204210740.423004150390625,3242898.160000000149012,K
279,1,279,1,279,286,Íàðüÿí-Ìàð,ÎÎÎ ""ÑÊ ""ÐÓÑÂÜÅÒÏÅÒÐÎ"",Óðåðíûðäñêîå ìåñòîðîæäåíèå,oil,,íåôòÿíîå,67.942222000000001,57.872777999999997,/oil-gas-field/urernyrdskoye,Urernyrdskoye,450939701379.052001953125000,3262746.402999999932945,1008,Timan-Pechora Basin,p,1,109204210740.423004150390625,3242898.160000000149012,K
280,1,280,1,280,287,Íàðüÿí-Ìàð,ÎÎÎ ""ÑÊ ""ÐÓÑÂÜÅÒÏÅÒÐÎ"",Âîñòî÷íî-ßíåìäåéñêîå ìåñòîðîæäåíèå,oil,,íåôòÿíîå,67.791667000000004,57.490000000000002,/oil-gas-field/vostochno-yanemdeyskoye,Vostochno Yanemdeyskoye,450939701379.052001953125000,3262746.402999999932945,1008,Timan-Pechora Basin,p,1,109204210740.423004150390625,3242898.160000000149012,K
281,1,281,1,281,288,Íàðüÿí-Ìàð,ÏÀÎ ""ÍÊ ""ÐÎÑÍÅÔÒÜ"",Ïàññåäñêîå ìåñòîðîæäåíèå,oil,,íåôòÿíîå,68.582222000000002,58.282221999999997,/oil-gas-field/passedskoye,Passedskoye,450939701379.052001953125000,3262746.402999999932945,1008,Timan-Pechora Basin,p,1,109204210740.423004150390625,3242898.160000000149012,K
282,1,282,1,282,289,Áàêó,Bp Plc,Ìåñòîðîæäåíèå Øàõ-Äåíèç,gas-condensate,,ãàçîêîíäåíñàòíîå,39.966735999999997,50.216141999999998,/oil-gas-field/shakh-deniz,Shakh Deniz,197701042294.204986572265625,1826068.841000000014901,1112,South Caspian Basin,p,1,409082547603.734008789062500,6944516.891999999992549,SEA
283,1,283,1,283,290,Îðåíáóðã,ÀÎ «Îðåíáóðãíåôòü»,Ðûáêèíñêîå ìåñòîðîæäåíèå,oil,,íåôòÿíîå,51.853380000000001,53.836649999999999,/oil-gas-field/rybkinskoye,Rybkinskoye,726370445706.697998046875000,4972426.422000000253320,1015,Volga-Ural Region,p,1,626721419021.604980468750000,19300571.103999998420477,N
284,1,284,1,284,291,Íåôòåþãàíñê,ÏÀÎ ""ÍÊ ""ÐÎÑÍÅÔÒÜ"",Þæíî-Ñóðãóòñêîå ìåñòîðîæäåíèå,oil,,íåôòÿíîå,61.162450000000000,72.997971000000007,/oil-gas-field/yuzhno-surgutskoye,Yuzhno Surgutskoye,2285549626238.638183593750000,7942933.641999999992549,1174,West Siberian Basin,p,1,1991093993625.498046875000000,45775025.710000000894070,Pg
285,1,285,1,285,292,Íóðëàò,ÏÀÎ «Òàòíåôòü»,Âèøíåâî-Ïîëÿíñêîå ìåñòîðîæäåíèå,oil,,íåôòÿíîå,54.533332999999999,50.747810999999999,/oil-gas-field/vishnevo-polyanskoye,Vishnevo Polyanskoye,726370445706.697998046875000,4972426.422000000253320,1015,Volga-Ural Region,p,1,604011631899.788940429687500,20681400.471999999135733,P
286,1,286,1,286,293,Íîâûé Óðåíãîé,ÏÀÎ «Ãàçïðîì»,Ìàëûãèíñêîå ìåñòîðîæäåíèå,gas-condensate,,ãàçîêîíäåíñàòíîå,72.250000000000000,70.583332999999996,/oil-gas-field/malyginskoye,Malyginskoye,2285549626238.638183593750000,7942933.641999999992549,1174,West Siberian Basin,p,1,79346903486.179000854492188,2485392.078000000212342,Pg
287,1,287,1,287,294,NA,ÀÎ «Óçáåêíåôòåãàç»,Ìåñòîðîæäåíèÿ Øàõïàõòû,gas-condensate,,ãàçîêîíäåíñàòíîå,42.653025999999997,56.386471000000000,/oil-gas-field/shakhpakhty,Shakhpakhty,424289671751.504028320312500,4260165.265999999828637,1109,Middle Caspian Basin,p,1,1010427500366.161010742187500,26187817.901000000536442,N
288,1,288,1,288,296,Îðåíáóðã,ÀÎ ÍÊ ""ÐóññÍåôòü"",ßñíîïîëÿíñêîå ìåñòîðîæäåíèå,gas-oil,,ãàçîíåôòÿíîå,51.667307000000001,52.981582000000003,/oil-gas-field/yasnopolyanskoye,Yasnopolyanskoye,726370445706.697998046875000,4972426.422000000253320,1015,Volga-Ural Region,p,1,8449014828.029999732971191,1941975.810999999986961,Tr
289,1,289,1,289,297,Òþìåíü,ÎÎÎ «ÐÍ «Óâàòíåôòåãàç»,Þæíî-Ïåòü¸ãñêîå ìåñòîðîæäåíèå,oil,,íåôòÿíîå,59.132975000000002,71.723335000000006,/oil-gas-field/yuzhno-petyogskoye,Yuzhno Petyogskoye,2285549626238.638183593750000,7942933.641999999992549,1174,West Siberian Basin,p,1,1991093993625.498046875000000,45775025.710000000894070,Pg
290,1,290,1,290,298,Ñóðãóò,ÏÀÎ ""ÍÊ ""ÐÎÑÍÅÔÒÜ"",Óãóòñêîå ìåñòîðîæäåíèÿ,oil,,íåôòÿíîå,60.516666999999998,74.150000000000006,/oil-gas-field/ugutskoe,Ugutskoe,2285549626238.638183593750000,7942933.641999999992549,1174,West Siberian Basin,p,1,1991093993625.498046875000000,45775025.710000000894070,Pg
291,1,291,1,291,299,Íèæíåâàðòîâñê,ÀÎ ÍÊ ""ÐóññÍåôòü"",Òàãðèíñêîå ìåñòîðîæäåíèå,oil-gas-condensate,,íåôòåãàçîêîíäåíñàòíîå,62.426625000000001,78.152618000000004,/oil-gas-field/tagrinskoye,Tagrinskoye,2285549626238.638183593750000,7942933.641999999992549,1174,West Siberian Basin,p,1,1991093993625.498046875000000,45775025.710000000894070,Pg
292,1,292,1,292,300,Ïåëåäóé,ÎÀÎ ""Ñóðãóòíåôòåãàç"",Òàëàêàíñêîå ìåñòîðîæäåíèå,oil-gas-condensate,,íåôòåãàçîêîíäåíñàòíîå,59.819971000000002,110.876769999999993,/oil-gas-field/talakanskoe,Talakanskoe,360115965584.392028808593750,3295676.089999999850988,1210,Nepa-Botuoba Arch,p,1,799935840.993999958038330,189978.755999999993946,J
293,1,293,1,293,301,Íèæíåâàðòîâñê,ÀÎ ÍÊ ""ÐóññÍåôòü"",Âàðüåãàíñêîå ìåñòîðîæäåíèå,oil-gas-condensate,,íåôòåãàçîêîíäåíñàòíîå,62.100833000000002,77.554721999999998,/oil-gas-field/varjeganskoe,Varjeganskoe,2285549626238.638183593750000,7942933.641999999992549,1174,West Siberian Basin,p,1,1991093993625.498046875000000,45775025.710000000894070,Pg
294,1,294,1,294,302,Íåôòåêàìñê,ÏÀÎ ÀÍÊ «Áàøíåôòü»,Àðëàíñêîå ìåñòîðîæäåíèå,oil,,íåôòÿíîå,56.134166999999998,54.049166999999997,/oil-gas-field/arlanskoe,Arlanskoe,726370445706.697998046875000,4972426.422000000253320,1015,Volga-Ural Region,p,1,604011631899.788940429687500,20681400.471999999135733,P
295,1,295,1,295,303,Íåôòåþãàíñê,ÏÀÎ ""ÍÊ ""ÐÎÑÍÅÔÒÜ"",Óñòü-Áàëûêñêîå ìåñòîðîæäåíèå,oil,,íåôòÿíîå,61.049166999999997,72.640556000000004,/oil-gas-field/ust-balykskoe,Ust Balykskoe,2285549626238.638183593750000,7942933.641999999992549,1174,West Siberian Basin,p,1,1991093993625.498046875000000,45775025.710000000894070,Pg
296,1,296,1,296,304,Îõà,ÏÀÎ ""ÍÊ ""ÐÎÑÍÅÔÒÜ"",Ìåñòîðîæäåíèå Óñòü-Ýâàé,gas-condensate,,ãàçîêîíäåíñàòíîå,52.284444000000001,143.078610999999995,/oil-gas-field/ust-evai,Ust Evai,85860508708.671997070312500,2387620.657999999821186,1322,North Sakhalin Basin,p,1,34754057488.655998229980469,2601912.236000000033528,N
297,1,297,1,297,305,Áîâàíåíêîâî,ÏÀÎ «Ãàçïðîì»,Êðóçåíøòåðíñêîå ìåñòîðîæäåíèå,gas-condensate,,ãàçîêîíäåíñàòíîå,70.601388999999998,67.192778000000004,/oil-gas-field/kruzenshternskoe,Kruzenshternskoe,2285549626238.638183593750000,7942933.641999999992549,1174,West Siberian Basin,p,1,10059528710210.796875000000000,88017714.201000005006790,SEA
298,1,298,1,298,306,Áîâàíåíêîâî,ÏÀÎ «Ãàçïðîì»,Õàðàñàâýéñêîå ìåñòîðîæäåíèå,gas-condensate,,ãàçîêîíäåíñàòíîå,71.193178000000003,66.862449999999995,/oil-gas-field/kharasaveyskoe,Kharasaveyskoe,2285549626238.638183593750000,7942933.641999999992549,1174,West Siberian Basin,p,1,10059528710210.796875000000000,88017714.201000005006790,SEA
299,1,299,1,299,307,Âàðàíäåé,ÎÎÎ «ËÓÊÎÉË-Êîìè»,Âàðàíäåéñêîå ìåñòîðîæäåíèå,oil,,íåôòÿíîå,68.783957000000001,58.182907000000000,/oil-gas-field/varandeyskoe,Varandeyskoe,450939701379.052001953125000,3262746.402999999932945,1008,Timan-Pechora Basin,p,1,109204210740.423004150390625,3242898.160000000149012,K
300,1,300,1,300,308,Îðåíáóðã,ÀÎ «Îðåíáóðãíåôòü»,Êèðñàíîâñêîå ìåñòîðîæäåíèå,oil,,íåôòÿíîå,54.268611000000000,52.982500000000002,/oil-gas-field/kirsanovskoe,Kirsanovskoe,726370445706.697998046875000,4972426.422000000253320,1015,Volga-Ural Region,p,1,604011631899.788940429687500,20681400.471999999135733,P
301,1,301,1,301,309,Êîãàëûì,ÎÎÎ ""ËÓÊîéë-Àèê"",Êîãàëûìñêîå ìåñòîðîæäåíèå,oil,,íåôòÿíîå,62.442500000000003,73.958611000000005,/oil-gas-field/kogalymskoye,Kogalymskoye,2285549626238.638183593750000,7942933.641999999992549,1174,West Siberian Basin,p,1,1991093993625.498046875000000,45775025.710000000894070,Pg
